$GPTXT,01,01,02,u-blox ag - www.u-blox.com*50
$GPTXT,01,01,02,HW  UBX-G70xx   00070000 FF7FFFFFo*69
$GPTXT,01,01,02,ROM CORE 1.00 (59842) Jun 27 2012 17:43:52*59
$GPTXT,01,01,02,PROTVER 14.00*1E
$GPTXT,01,01,02,ANTSUPERV=AC SD PDoS SR*20
$GPTXT,01,01,02,ANTSTATUS=OK*3B
$GPTXT,01,01,02,LLC FFFFFFFF-FFFFFFFF-FFFFFFFF-FFFFFFFF-FFFFFFFD*2C
$GPRMC,143253.00,V,,,,,,,051221,,,N*7A
$GPVTG,,,,,,,,,N*30
$GPGGA,143253.00,,,,,0,00,99.99,,,,,,*64
$GPGSA,A,1,,,,,,,,,,,,,99.99,99.99,99.99*30
$GPGSV,3,1,10,05,,,22,07,,,21,09,,,19,13,,,40*7C
$GPGSV,3,2,10,14,,,25,15,,,38,17,,,33,23,,,37*77
$GPGSV,3,3,10,28,,,13,32,,,25*76
$GPGLL,,,,,143253.00,V,N*48
$GPRMC,143254.00,V,,,,,,,051221,,,N*7D
$GPVTG,,,,,,,,,N*30
$GPGGA,143254.00,,,,,0,00,99.99,,,,,,*63
$GPGSA,A,1,,,,,,,,,,,,,99.99,99.99,99.99*30
$GPGSV,3,1,10,05,,,17,07,,,19,09,,,16,13,,,35*7C
$GPGSV,3,2,10,14,,,25,15,,,28,17,,,34,23,,,34*72
$GPGSV,3,3,10,28,,,12,32,,,21*73
$GPGLL,,,,,143254.00,V,N*4F
$GPRMC,143255.00,V,,,,,,,051221,,,N*7C
$GPVTG,,,,,,,,,N*30
$GPGGA,143255.00,,,,,0,00,99.99,,,,,,*62
$GPGSA,A,1,,,,,,,,,,,,,99.99,99.99,99.99*30
$GPGSV,2,1,08,05,,,13,13,,,39,14,,,26,15,,,36*7D
$GPGSV,2,2,08,17,,,37,23,,,36,28,,,10,32,,,12*7E
$GPGLL,,,,,143255.00,V,N*4E
$GPRMC,143256.00,V,,,,,,,051221,,,N*7F
$GPVTG,,,,,,,,,N*30
$GPGGA,143256.00,,,,,0,00,99.99,,,,,,*61
$GPGSA,A,1,,,,,,,,,,,,,99.99,99.99,99.99*30
$GPGSV,2,1,06,05,,,09,13,,,40,14,,,31,15,,,39*7F
$GPGSV,2,2,06,17,,,38,23,,,39*79
$GPGLL,,,,,143256.00,V,N*4D
$GPRMC,143257.00,V,,,,,,,051221,,,N*7E
$GPVTG,,,,,,,,,N*30
$GPGGA,143257.00,,,,,0,00,99.99,,,,,,*60
$GPGSA,A,1,,,,,,,,,,,,,99.99,99.99,99.99*30
$GPGSV,2,1,06,05,,,09,13,,,39,14,,,30,15,,,37*7E
$GPGSV,2,2,06,17,,,37,23,,,39*76
$GPGLL,,,,,143257.00,V,N*4C
$GPRMC,143258.00,V,,,,,,,051221,,,N*71
$GPVTG,,,,,,,,,N*30
$GPGGA,143258.00,,,,,0,00,99.99,,,,,,*6F
$GPGSA,A,1,,,,,,,,,,,,,99.99,99.99,99.99*30
$GPGSV,2,1,06,05,,,08,13,,,40,14,,,28,15,,,37*78
$GPGSV,2,2,06,17,,,35,23,,,39*74
$GPGLL,,,,,143258.00,V,N*43
$GPRMC,143259.00,V,,,,,,,051221,,,N*70
$GPVTG,,,,,,,,,N*30
$GPGGA,143259.00,,,,,0,00,99.99,,,,,,*6E
$GPGSA,A,1,,,,,,,,,,,,,99.99,99.99,99.99*30
$GPGSV,2,1,06,13,,,39,14,,,26,15,,,32,17,,,32*77
$GPGSV,2,2,06,23,,,37,24,,,26*78
$GPGLL,,,,,143259.00,V,N*42
$GPRMC,143300.00,V,,,,,,,051221,,,N*7D
$GPVTG,,,,,,,,,N*30
$GPGGA,143300.00,,,,,0,00,99.99,,,,,,*63
$GPGSA,A,1,,,,,,,,,,,,,99.99,99.99,99.99*30
$GPGSV,3,1,09,05,,,29,13,,,40,14,,,25,15,,,37*78
$GPGSV,3,2,09,17,,,32,23,,,36,24,,,27,42,,,27*72
$GPGSV,3,3,09,51,,,29*7F
$GPGLL,,,,,143300.00,V,N*4F
$GPRMC,143301.00,V,,,,,,,051221,,,N*7C
$GPVTG,,,,,,,,,N*30
$GPGGA,143301.00,,,,,0,00,99.99,,,,,,*62
$GPGSA,A,1,,,,,,,,,,,,,99.99,99.99,99.99*30
$GPGSV,2,1,08,05,,,33,13,,,38,14,,,24,15,,,39*73
$GPGSV,2,2,08,17,,,31,23,,,34,24,,,28,51,,,27*7E
$GPGLL,,,,,143301.00,V,N*4E
$GPRMC,143302.00,V,,,,,,,051221,,,N*7F
$GPVTG,,,,,,,,,N*30
$GPGGA,143302.00,,,,,0,00,99.99,,,,,,*61
$GPGSA,A,1,,,,,,,,,,,,,99.99,99.99,99.99*30
$GPGSV,2,1,08,05,,,32,13,,,39,14,,,22,15,,,37*7B
$GPGSV,2,2,08,17,,,30,23,,,35,24,,,27,51,,,27*71
$GPGLL,,,,,143302.00,V,N*4D
$GPRMC,143303.00,V,,,,,,,051221,,,N*7E
$GPVTG,,,,,,,,,N*30
$GPGGA,143303.00,,,,,0,00,99.99,,,,,,*60
$GPGSA,A,1,,,,,,,,,,,,,99.99,99.99,99.99*30
$GPGSV,2,1,07,05,,,32,13,,,41,14,,,31,15,,,37*79
$GPGSV,2,2,07,17,,,33,23,,,36,24,,,28*70
$GPGLL,,,,,143303.00,V,N*4C
$GPRMC,143304.00,V,,,,,,,051221,,,N*79
$GPVTG,,,,,,,,,N*30
$GPGGA,143304.00,,,,,0,00,99.99,,,,,,*67
$GPGSA,A,1,,,,,,,,,,,,,99.99,99.99,99.99*30
$GPGSV,2,1,07,05,,,33,13,,,41,14,,,32,15,,,38*74
$GPGSV,2,2,07,17,,,34,23,,,37,24,,,27*79
$GPGLL,,,,,143304.00,V,N*4B
$GPRMC,143305.00,V,,,,,,,051221,,,N*78
$GPVTG,,,,,,,,,N*30
$GPGGA,143305.00,,,,,0,00,99.99,,,,,,*66
$GPGSA,A,1,,,,,,,,,,,,,99.99,99.99,99.99*30
$GPGSV,2,1,07,05,,,33,13,,,41,14,,,31,15,,,40*78
$GPGSV,2,2,07,17,,,35,23,,,38,24,,,28*78
$GPGLL,,,,,143305.00,V,N*4A
$GPRMC,143306.00,V,,,,,,,051221,,,N*7B
$GPVTG,,,,,,,,,N*30
$GPGGA,143306.00,,,,,0,00,99.99,,,,,,*65
$GPGSA,A,1,,,,,,,,,,,,,99.99,99.99,99.99*30
$GPGSV,2,1,07,05,,,33,13,,,41,14,,,31,15,,,38*77
$GPGSV,2,2,07,17,,,38,23,,,38,24,,,27*7A
$GPGLL,,,,,143306.00,V,N*49
$GPRMC,143307.00,V,,,,,,,051221,,,N*7A
$GPVTG,,,,,,,,,N*30
$GPGGA,143307.00,,,,,0,00,99.99,,,,,,*64
$GPGSA,A,1,,,,,,,,,,,,,99.99,99.99,99.99*30
$GPGSV,2,1,07,05,,,35,13,,,40,14,,,35,15,,,38*74
$GPGSV,2,2,07,17,,,38,23,,,37,24,,,29*7B
$GPGLL,,,,,143307.00,V,N*48
$GPRMC,143308.00,V,,,,,,,051221,,,N*75
$GPVTG,,,,,,,,,N*30
$GPGGA,143308.00,,,,,0,00,99.99,,,,,,*6B
$GPGSA,A,1,,,,,,,,,,,,,99.99,99.99,99.99*30
$GPGSV,2,1,07,05,,,35,13,,,40,14,,,36,15,,,37*78
$GPGSV,2,2,07,17,,,39,23,,,36,24,,,33*70
$GPGLL,,,,,143308.00,V,N*47
$GPRMC,143309.00,V,,,,,,,051221,,,N*74
$GPVTG,,,,,,,,,N*30
$GPGGA,143309.00,,,,,0,00,99.99,,,,,,*6A
$GPGSA,A,1,,,,,,,,,,,,,99.99,99.99,99.99*30
$GPGSV,2,1,07,05,,,36,13,,,40,14,,,33,15,,,37*7E
$GPGSV,2,2,07,17,,,39,23,,,36,24,,,30*73
$GPGLL,,,,,143309.00,V,N*46
$GPRMC,143310.00,V,,,,,,,051221,,,N*7C
$GPVTG,,,,,,,,,N*30
$GPGGA,143310.00,,,,,0,00,99.99,,,,,,*62
$GPGSA,A,1,,,,,,,,,,,,,99.99,99.99,99.99*30
$GPGSV,2,1,07,05,,,35,13,,,40,14,,,32,15,,,37*7C
$GPGSV,2,2,07,17,,,38,23,,,36,24,,,21*72
$GPGLL,,,,,143310.00,V,N*4E
$GPRMC,143311.00,V,,,,,,,051221,,,N*7D
$GPVTG,,,,,,,,,N*30
$GPGGA,143311.00,,,,,0,00,99.99,,,,,,*63
$GPGSA,A,1,,,,,,,,,,,,,99.99,99.99,99.99*30
$GPGSV,2,1,07,05,,,34,13,,,40,14,,,33,15,,,36*7D
$GPGSV,2,2,07,17,,,38,23,,,37,24,,,24*76
$GPGLL,,,,,143311.00,V,N*4F
$GPRMC,143312.00,V,,,,,,,051221,,,N*7E
$GPVTG,,,,,,,,,N*30
$GPGGA,143312.00,,,,,0,00,99.99,,,,,,*60
$GPGSA,A,1,,,,,,,,,,,,,99.99,99.99,99.99*30
$GPGSV,2,1,07,05,,,34,13,,,41,14,,,32,15,,,37*7C
$GPGSV,2,2,07,17,,,37,23,,,38,24,,,25*77
$GPGLL,,,,,143312.00,V,N*4C
$GPRMC,143313.00,V,,,,,,,051221,,,N*7F
$GPVTG,,,,,,,,,N*30
$GPGGA,143313.00,,,,,0,00,99.99,,,,,,*61
$GPGSA,A,1,,,,,,,,,,,,,99.99,99.99,99.99*30
$GPGSV,2,1,07,05,,,34,13,,,40,14,,,27,15,,,37*79
$GPGSV,2,2,07,17,,,34,23,,,38,24,,,26*77
$GPGLL,,,,,143313.00,V,N*4D
$GPRMC,143314.00,V,,,,,,,051221,,,N*78
$GPVTG,,,,,,,,,N*30
$GPGGA,143314.00,,,,,0,00,99.99,,,,,,*66
$GPGSA,A,1,,,,,,,,,,,,,99.99,99.99,99.99*30
$GPGSV,2,1,07,05,,,34,13,,,41,14,,,27,15,,,39*76
$GPGSV,2,2,07,17,,,30,23,,,38,24,,,32*76
$GPGLL,,,,,143314.00,V,N*4A
$GPRMC,143315.00,V,,,,,,,051221,,,N*79
$GPVTG,,,,,,,,,N*30
$GPGGA,143315.00,,,,,0,00,99.99,,,,,,*67
$GPGSA,A,1,,,,,,,,,,,,,99.99,99.99,99.99*30
$GPGSV,2,1,07,05,,,22,13,,,41,14,,,26,15,,,37*7E
$GPGSV,2,2,07,17,,,33,23,,,39,24,,,33*75
$GPGLL,,,,,143315.00,V,N*4B
$GPRMC,143316.00,V,,,,,,,051221,,,N*7A
$GPVTG,,,,,,,,,N*30
$GPGGA,143316.00,,,,,0,00,99.99,,,,,,*64
$GPGSA,A,1,,,,,,,,,,,,,99.99,99.99,99.99*30
$GPGSV,2,1,07,05,,,24,13,,,42,14,,,25,15,,,37*78
$GPGSV,2,2,07,17,,,34,23,,,40,24,,,33*7C
$GPGLL,,,,,143316.00,V,N*48
$GPRMC,143317.00,V,,,,,,,051221,,,N*7B
$GPVTG,,,,,,,,,N*30
$GPGGA,143317.00,,,,,0,00,99.99,,,,,,*65
$GPGSA,A,1,,,,,,,,,,,,,99.99,99.99,99.99*30
$GPGSV,2,1,07,05,,,32,13,,,40,14,,,33,15,,,38*75
$GPGSV,2,2,07,17,,,36,23,,,36,24,,,32*7E
$GPGLL,,,,,143317.00,V,N*49
$GPRMC,143318.00,V,,,,,,,051221,,,N*74
$GPVTG,,,,,,,,,N*30
$GPGGA,143318.00,,,,,0,00,99.99,,,,,,*6A
$GPGSA,A,1,,,,,,,,,,,,,99.99,99.99,99.99*30
$GPGSV,2,1,07,05,,,30,13,,,40,14,,,35,15,,,37*7E
$GPGSV,2,2,07,17,,,36,23,,,36,24,,,32*7E
$GPGLL,,,,,143318.00,V,N*46
$GPRMC,143319.00,V,,,,,,,051221,,,N*75
$GPVTG,,,,,,,,,N*30
$GPGGA,143319.00,,,,,0,00,99.99,,,,,,*6B
$GPGSA,A,1,,,,,,,,,,,,,99.99,99.99,99.99*30
$GPGSV,2,1,07,05,,,21,13,,,40,14,,,36,15,,,36*7C
$GPGSV,2,2,07,17,,,36,23,,,36,24,,,32*7E
$GPGLL,,,,,143319.00,V,N*47
$GPRMC,143320.00,V,,,,,,,051221,,,N*7F
$GPVTG,,,,,,,,,N*30
$GPGGA,143320.00,,,,,0,03,10.53,,,,,,*65
$GPGSA,A,1,13,15,23,,,,,,,,,,10.58,10.53,1.00*0D
$GPGSV,2,1,07,05,,,30,13,71,115,40,14,,,37,15,74,287,36*70
$GPGSV,2,2,07,17,,,37,23,23,306,34,24,,,32*49
$GPGLL,,,,,143320.00,V,N*4D
$GPRMC,143321.00,V,,,,,,,051221,,,N*7E
$GPVTG,,,,,,,,,N*30
$GPGGA,143321.00,,,,,0,03,10.53,,,,,,*64
$GPGSA,A,1,13,15,23,,,,,,,,,,10.58,10.53,1.00*0D
$GPGSV,2,1,07,05,,,34,13,71,115,40,14,,,37,15,74,287,35*77
$GPGSV,2,2,07,17,,,38,23,23,306,32,24,,,32*40
$GPGLL,,,,,143321.00,V,N*4C
$GPRMC,143322.00,V,,,,,,,051221,,,N*7D
$GPVTG,,,,,,,,,N*30
$GPGGA,143322.00,,,,,0,03,10.53,,,,,,*67
$GPGSA,A,1,13,15,23,,,,,,,,,,10.58,10.53,1.00*0D
$GPGSV,2,1,07,05,,,29,13,71,115,40,14,,,37,15,74,287,36*78
$GPGSV,2,2,07,17,,,38,23,23,306,32,24,,,33*41
$GPGLL,,,,,143322.00,V,N*4F
$GPRMC,143323.00,V,,,,,,,051221,,,N*7C
$GPVTG,,,,,,,,,N*30
$GPGGA,143323.00,,,,,0,03,10.53,,,,,,*66
$GPGSA,A,1,13,15,23,,,,,,,,,,10.58,10.53,1.00*0D
$GPGSV,2,1,07,05,,,28,13,71,115,40,14,,,36,15,74,287,36*78
$GPGSV,2,2,07,17,,,38,23,23,306,32,24,,,33*41
$GPGLL,,,,,143323.00,V,N*4E
$GPRMC,143324.00,V,,,,,,,051221,,,N*7B
$GPVTG,,,,,,,,,N*30
$GPGGA,143324.00,,,,,0,03,10.53,,,,,,*61
$GPGSA,A,1,13,15,23,,,,,,,,,,10.58,10.53,1.00*0D
$GPGSV,2,1,08,02,,,28,05,,,29,13,71,115,40,14,,,35*42
$GPGSV,2,2,08,15,74,287,36,17,,,39,23,23,306,32,24,,,31*72
$GPGLL,,,,,143324.00,V,N*49
$GPRMC,143325.00,V,,,,,,,051221,,,N*7A
$GPVTG,,,,,,,,,N*30
$GPGGA,143325.00,,,,,0,03,10.54,,,,,,*67
$GPGSA,A,1,13,15,23,,,,,,,,,,10.58,10.54,1.00*0A
$GPGSV,2,1,07,05,,,35,13,71,115,40,14,,,34,15,74,287,36*76
$GPGSV,2,2,07,17,,,38,23,23,306,32,24,,,30*42
$GPGLL,,,,,143325.00,V,N*48
$GPRMC,143326.00,V,,,,,,,051221,,,N*79
$GPVTG,,,,,,,,,N*30
$GPGGA,143326.00,,,,,0,03,10.54,,,,,,*64
$GPGSA,A,1,13,15,23,,,,,,,,,,10.59,10.54,1.00*0B
$GPGSV,2,1,07,05,,,35,13,71,115,40,14,,,37,15,74,287,32*71
$GPGSV,2,2,07,17,,,38,23,23,306,31,24,,,31*40
$GPGLL,,,,,143326.00,V,N*4B
$GPRMC,143327.00,V,,,,,,,051221,,,N*78
$GPVTG,,,,,,,,,N*30
$GPGGA,143327.00,,,,,0,04,30.76,,,,,,*60
$GPGSA,A,1,13,17,15,23,,,,,,,,,35.16,30.76,17.04*30
$GPGSV,2,1,07,05,,,34,13,71,115,39,14,,,38,15,74,287,38*7B
$GPGSV,2,2,07,17,30,092,37,23,23,306,36,24,,,33*72
$GPGLL,,,,,143327.00,V,N*4A
$GPRMC,143328.00,V,,,,,,,051221,,,N*77
$GPVTG,,,,,,,,,N*30
$GPGGA,143328.00,,,,,0,04,30.67,,,,,,*6F
$GPGSA,A,1,13,17,15,23,,,,,,,,,35.07,30.67,17.01*35
$GPGSV,2,1,07,05,,,38,13,71,115,39,14,,,38,15,74,287,38*77
$GPGSV,2,2,07,17,30,092,39,23,23,306,35,24,,,30*7C
$GPGLL,,,,,143328.00,V,N*45
$GPRMC,143329.00,V,,,,,,,051221,,,N*76
$GPVTG,,,,,,,,,N*30
$GPGGA,143329.00,,,,,0,04,30.59,,,,,,*63
$GPGSA,A,1,13,17,15,23,,,,,,,,,34.98,30.59,16.97*31
$GPGSV,2,1,07,05,,,37,13,71,115,39,14,,,38,15,74,287,39*79
$GPGSV,2,2,07,17,30,092,37,23,23,306,32,24,,,32*77
$GPGLL,,,,,143329.00,V,N*44
$GPRMC,143330.00,V,,,,,,,051221,,,N*7E
$GPVTG,,,,,,,,,N*30
$GPGGA,143330.00,,,,,0,04,30.51,,,,,,*63
$GPGSA,A,1,13,17,15,23,,,,,,,,,34.90,30.51,16.93*35
$GPGSV,2,1,08,03,,,22,05,,,37,13,71,115,40,14,,,35*46
$GPGSV,2,2,08,15,74,287,39,17,30,092,36,23,23,306,37,24,,,34*4A
$GPGLL,,,,,143330.00,V,N*4C
$GPRMC,143331.00,V,,,,,,,051221,,,N*7F
$GPVTG,,,,,,,,,N*30
$GPGGA,143331.00,,,,,0,04,30.43,,,,,,*61
$GPGSA,A,1,13,17,15,23,,,,,,,,,34.81,30.43,16.90*35
$GPGSV,3,1,09,03,,,21,05,,,35,13,71,115,39,14,,,35*49
$GPGSV,3,2,09,15,74,287,39,17,30,092,36,23,23,306,38,24,,,34*45
$GPGSV,3,3,09,32,,,26*75
$GPGLL,,,,,143331.00,V,N*4D
$GPRMC,143332.00,V,,,,,,,051221,,,N*7C
$GPVTG,,,,,,,,,N*30
$GPGGA,143332.00,,,,,0,04,30.35,,,,,,*63
$GPGSA,A,1,13,17,15,23,,,,,,,,,34.72,30.35,16.86*3F
$GPGSV,3,1,09,03,,,21,05,,,35,13,71,115,39,14,,,34*48
$GPGSV,3,2,09,15,74,287,39,17,30,092,36,23,23,306,39,24,,,33*43
$GPGSV,3,3,09,32,,,22*71
$GPGLL,,,,,143332.00,V,N*4E
$GPRMC,143333.00,A,3912.34040,N,00918.18125,E,0.852,16.99,051221,,,A*53
$GPVTG,16.99,T,,M,0.852,N,1.578,K,A*0E
$GPGGA,143333.00,3912.34040,N,00918.18125,E,1,05,6.93,14.3,M,44.9,M,,*6A
$GPGSA,A,3,13,17,15,23,24,,,,,,,,8.09,6.93,4.16*0B
$GPGSV,3,1,09,03,,,19,05,,,34,13,71,115,37,14,36,048,32*73
$GPGSV,3,2,09,15,74,287,39,17,30,092,37,23,23,306,39,24,37,287,32*7A
$GPGSV,3,3,09,32,,,19*79
$GPGLL,3912.34040,N,00918.18125,E,143333.00,A,A*69
$GPRMC,143334.00,A,3912.33800,N,00918.18033,E,0.477,,051221,,,A*7B
$GPVTG,,T,,M,0.477,N,0.883,K,A*24
$GPGGA,143334.00,3912.33800,N,00918.18033,E,1,05,6.94,12.0,M,44.9,M,,*62
$GPGSA,A,3,13,17,15,23,24,,,,,,,,8.10,6.94,4.17*05
$GPGSV,3,1,09,04,,,21,05,,,34,13,71,115,37,14,36,048,32*7F
$GPGSV,3,2,09,15,74,287,39,17,30,092,38,23,23,306,37,24,37,287,31*78
$GPGSV,3,3,09,32,,,12*72
$GPGLL,3912.33800,N,00918.18033,E,143334.00,A,A*63
$GPRMC,143335.00,A,3912.33466,N,00918.17897,E,0.454,,051221,,,A*7E
$GPVTG,,T,,M,0.454,N,0.840,K,A*2A
$GPGGA,143335.00,3912.33466,N,00918.17897,E,1,05,6.95,8.5,M,44.9,M,,*59
$GPGSA,A,3,13,17,15,23,24,,,,,,,,8.11,6.95,4.17*05
$GPGSV,3,1,10,04,,,21,05,,,36,13,71,115,37,14,36,048,32*75
$GPGSV,3,2,10,15,74,287,39,16,,,22,17,30,092,37,23,23,306,36*44
$GPGSV,3,3,10,24,37,287,31,32,,,10*45
$GPGLL,3912.33466,N,00918.17897,E,143335.00,A,A*67
$GPRMC,143336.00,A,3912.33287,N,00918.17820,E,0.289,,051221,,,A*7E
$GPVTG,,T,,M,0.289,N,0.535,K,A*23
$GPGGA,143336.00,3912.33287,N,00918.17820,E,1,05,6.96,6.9,M,44.9,M,,*5E
$GPGSA,A,3,13,17,15,23,24,,,,,,,,8.12,6.96,4.18*0A
$GPGSV,3,1,12,03,,,21,04,,,21,05,,,36,09,,,22*76
$GPGSV,3,2,12,13,71,115,37,14,36,048,35,15,74,287,38,16,,,22*42
$GPGSV,3,3,12,17,30,092,37,19,,,29,23,23,306,36,24,37,287,30*4F
$GPGLL,3912.33287,N,00918.17820,E,143336.00,A,A*61
$GPRMC,143337.00,A,3912.33187,N,00918.17778,E,0.439,,051221,,,A*73
$GPVTG,,T,,M,0.439,N,0.813,K,A*27
$GPGGA,143337.00,3912.33187,N,00918.17778,E,1,05,6.96,5.9,M,44.9,M,,*5D
$GPGSA,A,3,13,17,15,23,24,,,,,,,,8.13,6.96,4.19*0A
$GPGSV,4,1,13,03,,,20,04,,,20,05,,,34,09,,,21*71
$GPGSV,4,2,13,11,,,21,13,71,115,37,14,36,048,35,15,74,287,38*40
$GPGSV,4,3,13,16,,,21,17,30,092,35,19,,,27,23,23,306,36*7D
$GPGSV,4,4,13,24,37,287,27*41
$GPGLL,3912.33187,N,00918.17778,E,143337.00,A,A*61
$GPRMC,143338.00,A,3912.33072,N,00918.17728,E,0.183,,051221,,,A*76
$GPVTG,,T,,M,0.183,N,0.338,K,A*21
$GPGGA,143338.00,3912.33072,N,00918.17728,E,1,05,6.97,4.8,M,44.9,M,,*5D
$GPGSA,A,3,13,17,15,23,24,,,,,,,,8.14,6.97,4.19*0C
$GPGSV,4,1,13,03,,,19,04,,,20,05,,,34,09,,,21*7B
$GPGSV,4,2,13,11,,,20,13,71,115,37,14,36,048,36,15,74,287,38*42
$GPGSV,4,3,13,16,,,21,17,30,092,35,19,,,26,23,23,306,37*7D
$GPGSV,4,4,13,24,37,287,25*43
$GPGLL,3912.33072,N,00918.17728,E,143338.00,A,A*60
$GPRMC,143339.00,A,3912.33025,N,00918.17705,E,0.219,,051221,,,A*7A
$GPVTG,,T,,M,0.219,N,0.405,K,A*28
$GPGGA,143339.00,3912.33025,N,00918.17705,E,1,05,6.98,4.4,M,44.9,M,,*52
$GPGSA,A,3,13,17,15,23,24,,,,,,,,8.15,6.98,4.20*08
$GPGSV,4,1,14,03,,,16,04,,,18,05,,,34,06,,,20*76
$GPGSV,4,2,14,09,,,21,11,,,20,13,71,115,37,14,36,048,36*7E
$GPGSV,4,3,14,15,74,287,37,16,,,21,17,30,092,35,19,,,28*7B
$GPGSV,4,4,14,23,23,306,37,24,37,287,23*73
$GPGLL,3912.33025,N,00918.17705,E,143339.00,A,A*6C
$GPRMC,143340.00,A,3912.33010,N,00918.17694,E,0.430,,051221,,,A*76
$GPVTG,,T,,M,0.430,N,0.796,K,A*2C
$GPGGA,143340.00,3912.33010,N,00918.17694,E,1,05,6.99,4.3,M,44.9,M,,*55
$GPGSA,A,3,13,17,15,23,24,,,,,,,,8.16,6.99,4.20*0A
$GPGSV,4,1,14,03,,,11,04,,,15,05,,,34,06,,,18*77
$GPGSV,4,2,14,09,,,19,11,,,19,13,71,115,38,14,36,048,36*70
$GPGSV,4,3,14,15,74,287,38,16,,,21,17,30,092,36,19,,,29*76
$GPGSV,4,4,14,23,23,306,37,24,37,287,23*73
$GPGLL,3912.33010,N,00918.17694,E,143340.00,A,A*6D
$GPRMC,143341.00,A,3912.32957,N,00918.17670,E,0.181,,051221,,,A*79
$GPVTG,,T,,M,0.181,N,0.336,K,A*2D
$GPGGA,143341.00,3912.32957,N,00918.17670,E,1,05,7.00,3.9,M,44.9,M,,*59
$GPGSA,A,3,13,17,15,23,24,,,,,,,,8.17,7.00,4.21*0B
$GPGSV,4,1,13,04,,,10,05,,,34,06,,,14,11,,,16*7D
$GPGSV,4,2,13,13,71,115,37,14,36,048,36,15,74,287,39,16,,,18*4F
$GPGSV,4,3,13,17,30,092,37,19,,,29,23,23,306,38,24,37,287,23*45
$GPGSV,4,4,13,28,,,27*74
$GPGLL,3912.32957,N,00918.17670,E,143341.00,A,A*6D
$GPRMC,143342.00,A,3912.32918,N,00918.17649,E,0.272,,051221,,,A*74
$GPVTG,,T,,M,0.272,N,0.504,K,A*25
$GPGGA,143342.00,3912.32918,N,00918.17649,E,1,05,7.01,3.7,M,44.9,M,,*54
$GPGSA,A,3,13,17,15,23,24,,,,,,,,8.18,7.01,4.22*06
$GPGSV,3,1,09,05,,,34,13,71,115,37,14,36,048,36,15,74,287,37*42
$GPGSV,3,2,09,17,30,092,37,19,,,28,23,23,306,37,24,37,287,25*40
$GPGSV,3,3,09,28,,,27*7F
$GPGLL,3912.32918,N,00918.17649,E,143342.00,A,A*6F
$GPRMC,143343.00,A,3912.32921,N,00918.17650,E,0.277,,051221,,,A*72
$GPVTG,,T,,M,0.277,N,0.514,K,A*21
$GPGGA,143343.00,3912.32921,N,00918.17650,E,1,05,7.01,3.8,M,44.9,M,,*58
$GPGSA,A,3,13,17,15,23,24,,,,,,,,8.19,7.01,4.22*07
$GPGSV,3,1,10,05,,,35,13,71,115,37,14,36,048,36,15,74,287,37*4B
$GPGSV,3,2,10,17,30,092,36,19,,,30,23,23,306,37,24,37,287,26*43
$GPGSV,3,3,10,28,,,27,32,,,28*7C
$GPGLL,3912.32921,N,00918.17650,E,143343.00,A,A*6C
$GPRMC,143344.00,A,3912.32917,N,00918.17646,E,0.222,,051221,,,A*77
$GPVTG,,T,,M,0.222,N,0.412,K,A*26
$GPGGA,143344.00,3912.32917,N,00918.17646,E,1,05,7.02,3.7,M,44.9,M,,*51
$GPGSA,A,3,13,17,15,23,24,,,,,,,,8.20,7.02,4.23*0F
$GPGSV,3,1,09,05,,,35,13,71,115,37,14,36,048,36,15,74,287,38*4C
$GPGSV,3,2,09,17,30,092,36,19,,,30,23,23,306,37,24,37,287,26*4B
$GPGSV,3,3,09,28,,,28*70
$GPGLL,3912.32917,N,00918.17646,E,143344.00,A,A*69
$GPRMC,143345.00,A,3912.32931,N,00918.17646,E,0.239,,051221,,,A*78
$GPVTG,,T,,M,0.239,N,0.443,K,A*28
$GPGGA,143345.00,3912.32931,N,00918.17646,E,1,05,7.03,3.9,M,44.9,M,,*5B
$GPGSA,A,3,13,17,15,23,24,,,,,,,,8.21,7.03,4.23*0F
$GPGSV,3,1,09,05,,,34,13,71,115,38,14,36,048,37,15,74,287,36*4D
$GPGSV,3,2,09,17,30,092,36,19,,,28,23,23,306,37,24,37,287,27*43
$GPGSV,3,3,09,28,,,29*71
$GPGLL,3912.32931,N,00918.17646,E,143345.00,A,A*6C
$GPRMC,143346.00,A,3912.32896,N,00918.17627,E,0.013,,051221,,,A*7A
$GPVTG,,T,,M,0.013,N,0.024,K,A*27
$GPGGA,143346.00,3912.32896,N,00918.17627,E,1,05,7.04,3.4,M,44.9,M,,*59
$GPGSA,A,3,13,17,15,23,24,,,,,,,,8.22,7.04,4.24*0C
$GPGSV,3,1,09,05,,,35,13,71,115,38,14,36,048,36,15,74,287,38*43
$GPGSV,3,2,09,17,30,092,36,19,,,30,23,23,306,35,24,37,287,27*48
$GPGSV,3,3,09,28,,,29*71
$GPGLL,3912.32896,N,00918.17627,E,143346.00,A,A*64
!AIVDM,1,1,,B,H3P=Aa0lT>0A8u0000000000000,2*2B
$GPRMC,143347.00,A,3912.32844,N,00918.17603,E,0.042,,051221,,,A*76
$GPVTG,,T,,M,0.042,N,0.078,K,A*2A
$GPGGA,143347.00,3912.32844,N,00918.17603,E,1,05,7.05,2.5,M,44.9,M,,*50
$GPGSA,A,3,13,17,15,23,24,,,,,,,,8.23,7.05,4.24*0C
$GPGSV,3,1,09,05,,,35,13,71,115,39,14,36,048,32,15,74,287,39*47
$GPGSV,3,2,09,17,30,092,36,19,,,30,23,23,306,35,24,37,287,28*47
$GPGSV,3,3,09,28,,,30*79
$GPGLL,3912.32844,N,00918.17603,E,143347.00,A,A*6C
$GPRMC,143348.00,A,3912.32827,N,00918.17597,E,0.033,,051221,,,A*74
$GPVTG,,T,,M,0.033,N,0.061,K,A*24
$GPGGA,143348.00,3912.32827,N,00918.17597,E,1,05,7.05,2.1,M,44.9,M,,*50
$GPGSA,A,3,13,17,15,23,24,,,,,,,,8.24,7.05,4.25*0A
$GPGSV,3,1,09,05,,,34,13,71,115,39,14,36,048,30,15,74,287,39*44
$GPGSV,3,2,09,17,30,092,34,19,,,30,23,23,306,35,24,37,287,31*4D
$GPGSV,3,3,09,28,,,31*78
$GPGLL,3912.32827,N,00918.17597,E,143348.00,A,A*68
$GPRMC,143349.00,A,3912.32784,N,00918.17578,E,0.041,,051221,,,A*77
$GPVTG,,T,,M,0.041,N,0.076,K,A*27
$GPGGA,143349.00,3912.32784,N,00918.17578,E,1,05,7.06,1.5,M,44.9,M,,*52
$GPGSA,A,3,13,17,15,23,24,,,,,,,,8.25,7.06,4.26*0B
$GPGSV,3,1,09,05,,,35,13,71,115,39,14,36,048,28,15,74,287,39*4C
$GPGSV,3,2,09,17,30,092,32,19,,,32,23,23,306,34,24,37,287,32*4B
$GPGSV,3,3,09,28,,,24*7C
$GPGLL,3912.32784,N,00918.17578,E,143349.00,A,A*6E
$GPRMC,143350.00,A,3912.32731,N,00918.17555,E,0.155,,051221,,,A*7A
$GPVTG,,T,,M,0.155,N,0.288,K,A*20
$GPGGA,143350.00,3912.32731,N,00918.17555,E,1,05,7.07,0.8,M,44.9,M,,*56
$GPGSA,A,3,13,17,15,23,24,,,,,,,,8.26,7.07,4.26*09
$GPGSV,3,1,09,05,,,36,13,71,115,39,14,36,048,30,15,74,287,39*46
$GPGSV,3,2,09,17,30,092,32,19,,,34,23,23,306,31,24,37,287,33*49
$GPGSV,3,3,09,28,,,25*7D
$GPGLL,3912.32731,N,00918.17555,E,143350.00,A,A*67
$GPRMC,143351.00,A,3912.32436,N,00918.17429,E,0.234,,051221,,,A*71
$GPVTG,,T,,M,0.234,N,0.434,K,A*25
$GPGGA,143351.00,3912.32436,N,00918.17429,E,1,07,1.07,-2.4,M,44.9,M,,*7E
$GPGSA,A,3,13,17,14,15,23,05,24,,,,,,2.01,1.07,1.71*07
$GPGSV,3,1,09,05,21,203,34,13,71,115,39,14,36,048,37,15,74,287,40*7F
$GPGSV,3,2,09,17,30,092,34,19,,,35,23,23,306,30,24,37,287,33*4F
$GPGSV,3,3,09,28,,,25*7D
$GPGLL,3912.32436,N,00918.17429,E,143351.00,A,A*68
$GPRMC,143352.00,A,3912.32401,N,00918.17409,E,0.041,,051221,,,A*74
$GPVTG,,T,,M,0.041,N,0.077,K,A*26
$GPGGA,143352.00,3912.32401,N,00918.17409,E,1,07,1.07,-2.7,M,44.9,M,,*78
$GPGSA,A,3,13,17,14,15,23,05,24,,,,,,2.01,1.07,1.71*07
$GPGSV,3,1,09,05,21,203,35,13,71,115,39,14,36,048,38,15,74,287,39*7F
$GPGSV,3,2,09,17,30,092,35,19,,,33,23,23,306,30,24,37,287,32*49
$GPGSV,3,3,09,28,,,23*7B
$GPGLL,3912.32401,N,00918.17409,E,143352.00,A,A*6D
$GPRMC,143353.00,A,3912.32347,N,00918.17387,E,0.063,,051221,,,A*71
$GPVTG,,T,,M,0.063,N,0.117,K,A*21
$GPGGA,143353.00,3912.32347,N,00918.17387,E,1,07,1.07,-3.2,M,44.9,M,,*79
$GPGSA,A,3,13,17,14,15,23,05,24,,,,,,2.01,1.07,1.71*07
$GPGSV,3,1,09,05,21,203,35,13,71,115,39,14,36,048,39,15,74,287,38*7F
$GPGSV,3,2,09,17,30,092,36,19,,,32,23,23,306,30,24,37,287,32*4B
$GPGSV,3,3,09,28,,,24*7C
$GPGLL,3912.32347,N,00918.17387,E,143353.00,A,A*68
$GPRMC,143354.00,A,3912.32341,N,00918.17386,E,0.036,,051221,,,A*71
$GPVTG,,T,,M,0.036,N,0.067,K,A*27
$GPGGA,143354.00,3912.32341,N,00918.17386,E,1,07,1.07,-3.3,M,44.9,M,,*78
$GPGSA,A,3,13,17,14,15,23,05,24,,,,,,2.01,1.07,1.71*07
$GPGSV,3,1,09,05,21,203,35,13,71,115,38,14,36,048,39,15,74,287,39*7F
$GPGSV,3,2,09,17,30,092,36,19,,,30,23,23,306,31,24,37,287,33*49
$GPGSV,3,3,09,28,,,24*7C
$GPGLL,3912.32341,N,00918.17386,E,143354.00,A,A*68
$GPRMC,143355.00,A,3912.32335,N,00918.17387,E,0.059,,051221,,,A*7B
$GPVTG,,T,,M,0.059,N,0.109,K,A*27
$GPGGA,143355.00,3912.32335,N,00918.17387,E,1,07,1.07,-3.5,M,44.9,M,,*7D
$GPGSA,A,3,13,17,14,15,23,05,24,,,,,,2.01,1.07,1.71*07
$GPGSV,3,1,09,05,21,203,35,13,71,115,38,14,36,048,39,15,74,287,39*7F
$GPGSV,3,2,09,17,30,092,36,19,,,30,23,23,306,30,24,37,287,34*4F
$GPGSV,3,3,09,28,,,22*7A
$GPGLL,3912.32335,N,00918.17387,E,143355.00,A,A*6B
$GPRMC,143356.00,A,3912.32352,N,00918.17398,E,0.032,,051221,,,A*7A
$GPVTG,,T,,M,0.032,N,0.059,K,A*2E
$GPGGA,143356.00,3912.32352,N,00918.17398,E,1,07,1.07,-3.5,M,44.9,M,,*71
$GPGSA,A,3,13,17,14,15,23,05,24,,,,,,2.01,1.07,1.71*07
$GPGSV,3,1,09,05,21,203,36,13,71,115,40,14,36,048,38,15,74,287,38*73
$GPGSV,3,2,09,17,30,092,36,19,,,30,23,23,306,28,24,37,287,35*47
$GPGSV,3,3,09,28,,,21*79
$GPGLL,3912.32352,N,00918.17398,E,143356.00,A,A*67
$GPRMC,143357.00,A,3912.32360,N,00918.17403,E,0.026,,051221,,,A*7A
$GPVTG,,T,,M,0.026,N,0.049,K,A*2A
$GPGGA,143357.00,3912.32360,N,00918.17403,E,1,07,1.07,-3.5,M,44.9,M,,*74
$GPGSA,A,3,13,17,14,15,23,05,24,,,,,,2.01,1.07,1.71*07
$GPGSV,3,1,09,05,21,203,37,13,71,115,39,14,36,048,38,15,74,287,39*7D
$GPGSV,3,2,09,17,30,092,36,19,,,31,23,23,306,28,24,37,287,35*46
$GPGSV,3,3,09,28,,,21*79
$GPGLL,3912.32360,N,00918.17403,E,143357.00,A,A*62
$GPRMC,143358.00,A,3912.32362,N,00918.17411,E,0.041,,051221,,,A*75
$GPVTG,,T,,M,0.041,N,0.077,K,A*26
$GPGGA,143358.00,3912.32362,N,00918.17411,E,1,07,1.07,-3.5,M,44.9,M,,*7A
$GPGSA,A,3,13,17,14,15,23,05,24,,,,,,2.01,1.07,1.71*07
$GPGSV,3,1,09,05,21,203,36,13,71,115,38,14,36,048,38,15,74,287,39*7D
$GPGSV,3,2,09,17,30,092,37,19,,,32,23,23,306,30,24,37,287,36*4E
$GPGSV,3,3,09,28,,,26*7E
$GPGLL,3912.32362,N,00918.17411,E,143358.00,A,A*6C
$GPRMC,143359.00,A,3912.32358,N,00918.17414,E,0.027,,051221,,,A*78
$GPVTG,,T,,M,0.027,N,0.050,K,A*23
$GPGGA,143359.00,3912.32358,N,00918.17414,E,1,07,1.07,-3.5,M,44.9,M,,*77
$GPGSA,A,3,13,17,14,15,23,05,24,,,,,,2.01,1.07,1.71*07
$GPGSV,3,1,09,05,21,203,34,13,71,115,38,14,36,048,37,15,74,286,39*71
$GPGSV,3,2,09,17,30,092,36,19,,,31,23,23,306,34,24,37,287,36*48
$GPGSV,3,3,09,28,,,28*70
$GPGLL,3912.32358,N,00918.17414,E,143359.00,A,A*61
$GPRMC,143400.00,A,3912.32360,N,00918.17416,E,0.020,,051221,,,A*7D
$GPVTG,,T,,M,0.020,N,0.037,K,A*25
$GPGGA,143400.00,3912.32360,N,00918.17416,E,1,07,1.07,-3.5,M,44.9,M,,*75
$GPGSA,A,3,13,17,14,15,23,05,24,,,,,,2.01,1.07,1.71*07
$GPGSV,3,1,09,05,21,203,36,13,71,115,38,14,36,048,36,15,74,286,39*72
$GPGSV,3,2,09,17,30,092,37,19,,,31,23,23,306,33,24,37,287,35*4D
$GPGSV,3,3,09,28,,,27*7F
$GPGLL,3912.32360,N,00918.17416,E,143400.00,A,A*63
$GPRMC,143401.00,A,3912.32364,N,00918.17418,E,0.060,,051221,,,A*72
$GPVTG,,T,,M,0.060,N,0.112,K,A*27
$GPGGA,143401.00,3912.32364,N,00918.17418,E,1,07,1.07,-3.4,M,44.9,M,,*7F
$GPGSA,A,3,13,17,14,15,23,05,24,,,,,,2.01,1.07,1.71*07
$GPGSV,3,1,09,05,21,203,37,13,71,115,38,14,36,048,37,15,74,286,40*7C
$GPGSV,3,2,09,17,30,092,36,19,,,32,23,23,306,34,24,37,287,36*4B
$GPGSV,3,3,09,28,,,29*71
$GPGLL,3912.32364,N,00918.17418,E,143401.00,A,A*68
$GPRMC,143402.00,A,3912.32368,N,00918.17418,E,0.014,,051221,,,A*7E
$GPVTG,,T,,M,0.014,N,0.027,K,A*23
$GPGGA,143402.00,3912.32368,N,00918.17418,E,1,07,1.07,-3.3,M,44.9,M,,*77
$GPGSA,A,3,13,17,14,15,23,05,24,,,,,,2.01,1.07,1.71*07
$GPGSV,3,1,09,05,21,203,35,13,71,115,39,14,36,048,33,15,74,286,40*7B
$GPGSV,3,2,09,17,30,092,36,19,,,33,23,23,306,35,24,37,287,36*4B
$GPGSV,3,3,09,28,,,32*7B
$GPGLL,3912.32368,N,00918.17418,E,143402.00,A,A*67
$GPRMC,143403.00,A,3912.32377,N,00918.17415,E,0.151,,051221,,,A*7C
$GPVTG,,T,,M,0.151,N,0.280,K,A*2C
$GPGGA,143403.00,3912.32377,N,00918.17415,E,1,08,1.00,-3.1,M,44.9,M,,*7F
$GPGSA,A,3,13,17,14,15,19,23,05,24,,,,,1.92,1.00,1.64*05
$GPGSV,3,1,09,05,21,203,35,13,71,115,39,14,36,048,30,15,74,286,39*76
$GPGSV,3,2,09,17,30,092,36,19,26,122,32,23,23,306,35,24,37,288,36*70
$GPGSV,3,3,09,28,,,35*7C
$GPGLL,3912.32377,N,00918.17415,E,143403.00,A,A*65
$GPRMC,143404.00,A,3912.32385,N,00918.17414,E,0.033,,051221,,,A*72
$GPVTG,,T,,M,0.033,N,0.061,K,A*24
$GPGGA,143404.00,3912.32385,N,00918.17414,E,1,08,1.00,-2.7,M,44.9,M,,*73
$GPGSA,A,3,13,17,14,15,19,23,05,24,,,,,1.92,1.00,1.64*05
$GPGSV,3,1,09,05,21,203,37,13,71,115,38,14,36,048,28,15,74,286,39*7C
$GPGSV,3,2,09,17,30,092,37,19,26,122,32,23,23,306,36,24,37,288,34*70
$GPGSV,3,3,09,28,,,34*7D
$GPGLL,3912.32385,N,00918.17414,E,143404.00,A,A*6E
$GPRMC,143405.00,A,3912.32385,N,00918.17409,E,0.017,,051221,,,A*79
$GPVTG,,T,,M,0.017,N,0.031,K,A*27
$GPGGA,143405.00,3912.32385,N,00918.17409,E,1,08,1.00,-2.3,M,44.9,M,,*7A
$GPGSA,A,3,13,17,14,15,19,23,05,24,,,,,1.92,1.00,1.64*05
$GPGSV,3,1,09,05,21,203,36,13,71,115,38,14,36,048,36,15,74,286,40*7C
$GPGSV,3,2,09,17,30,092,37,19,26,122,25,23,23,306,36,24,37,288,34*76
$GPGSV,3,3,09,28,,,31*78
$GPGLL,3912.32385,N,00918.17409,E,143405.00,A,A*63
$GPRMC,143406.00,A,3912.32384,N,00918.17407,E,0.067,,051221,,,A*72
$GPVTG,,T,,M,0.067,N,0.125,K,A*24
$GPGGA,143406.00,3912.32384,N,00918.17407,E,1,08,1.00,-2.1,M,44.9,M,,*74
$GPGSA,A,3,13,17,14,15,19,23,05,24,,,,,1.92,1.00,1.64*05
$GPGSV,3,1,09,05,21,203,35,13,71,115,37,14,36,048,37,15,74,286,39*7F
$GPGSV,3,2,09,17,30,092,38,19,26,122,25,23,23,306,36,24,37,288,33*7E
$GPGSV,3,3,09,28,,,31*78
$GPGLL,3912.32384,N,00918.17407,E,143406.00,A,A*6F
$GPRMC,143407.00,A,3912.32384,N,00918.17407,E,0.055,,051221,,,A*72
$GPVTG,,T,,M,0.055,N,0.102,K,A*20
$GPGGA,143407.00,3912.32384,N,00918.17407,E,1,08,1.00,-1.9,M,44.9,M,,*7E
$GPGSA,A,3,13,17,14,15,19,23,05,24,,,,,1.92,1.00,1.64*05
$GPGSV,3,1,09,05,21,203,36,13,71,115,37,14,36,048,37,15,74,286,38*7D
$GPGSV,3,2,09,17,30,092,38,19,26,122,27,23,23,306,36,24,37,288,33*7C
$GPGSV,3,3,09,28,,,29*71
$GPGLL,3912.32384,N,00918.17407,E,143407.00,A,A*6E
$GPRMC,143408.00,A,3912.32385,N,00918.17408,E,0.038,,051221,,,A*78
$GPVTG,,T,,M,0.038,N,0.070,K,A*2F
$GPGGA,143408.00,3912.32385,N,00918.17408,E,1,08,1.00,-1.8,M,44.9,M,,*7E
$GPGSA,A,3,13,17,14,15,19,23,05,24,,,,,1.92,1.00,1.64*05
$GPGSV,3,1,09,05,21,203,36,13,71,115,37,14,36,048,37,15,74,286,38*7D
$GPGSV,3,2,09,17,30,092,37,19,26,122,29,23,23,306,35,24,37,288,32*7F
$GPGSV,3,3,09,28,,,28*70
$GPGLL,3912.32385,N,00918.17408,E,143408.00,A,A*6F
$GPRMC,143409.00,A,3912.32380,N,00918.17404,E,0.023,,051221,,,A*7A
$GPVTG,,T,,M,0.023,N,0.042,K,A*24
$GPGGA,143409.00,3912.32380,N,00918.17404,E,1,08,1.00,-1.6,M,44.9,M,,*78
$GPGSA,A,3,13,17,14,15,19,23,05,24,,,,,1.92,1.00,1.64*05
$GPGSV,3,1,09,05,21,203,35,13,71,115,37,14,36,048,38,15,74,286,40*7E
$GPGSV,3,2,09,17,30,092,37,19,26,122,31,23,23,306,36,24,37,288,30*77
$GPGSV,3,3,09,28,,,25*7D
$GPGLL,3912.32380,N,00918.17404,E,143409.00,A,A*67
$GPRMC,143410.00,A,3912.32375,N,00918.17405,E,0.084,,051221,,,A*74
$GPVTG,,T,,M,0.084,N,0.155,K,A*2E
$GPGGA,143410.00,3912.32375,N,00918.17405,E,1,08,1.00,-1.6,M,44.9,M,,*7B
$GPGSA,A,3,13,17,14,15,19,23,05,24,,,,,1.92,1.00,1.64*05
$GPGSV,3,1,09,05,21,203,32,13,71,115,33,14,36,048,35,15,74,286,36*71
$GPGSV,3,2,09,17,30,092,32,19,26,122,26,23,23,306,31,24,37,288,30*73
$GPGSV,3,3,09,33,38,216,29*45
$GPGLL,3912.32375,N,00918.17405,E,143410.00,A,A*64
$GPRMC,143411.00,A,3912.32368,N,00918.17404,E,0.008,,051221,,,A*7C
$GPVTG,,T,,M,0.008,N,0.016,K,A*2C
$GPGGA,143411.00,3912.32368,N,00918.17404,E,1,08,1.00,-1.5,M,44.9,M,,*74
$GPGSA,A,3,13,17,14,15,19,23,05,24,,,,,1.92,1.00,1.64*05
$GPGSV,3,1,10,05,21,203,35,13,71,115,36,14,36,048,37,15,74,286,37*78
$GPGSV,3,2,10,17,30,092,36,19,26,122,27,23,23,306,31,24,37,288,31*7F
$GPGSV,3,3,10,33,38,216,27,39,42,156,27*78
$GPGLL,3912.32368,N,00918.17404,E,143411.00,A,A*68
$GPRMC,143412.00,A,3912.32364,N,00918.17405,E,0.012,,051221,,,A*79
$GPVTG,,T,,M,0.012,N,0.022,K,A*20
$GPGGA,143412.00,3912.32364,N,00918.17405,E,1,08,1.00,-1.2,M,44.9,M,,*7D
$GPGSA,A,3,13,17,14,15,19,23,05,24,,,,,1.92,1.00,1.64*05
$GPGSV,2,1,08,05,21,203,36,13,71,115,36,14,36,048,37,15,74,286,37*73
$GPGSV,2,2,08,17,30,092,37,19,26,122,29,23,23,306,31,24,37,288,33*7A
$GPGLL,3912.32364,N,00918.17405,E,143412.00,A,A*66
$GPRMC,143413.00,A,3912.32363,N,00918.17406,E,0.010,,051221,,,A*7E
$GPVTG,,T,,M,0.010,N,0.018,K,A*2B
$GPGGA,143413.00,3912.32363,N,00918.17406,E,1,08,1.00,-1.2,M,44.9,M,,*78
$GPGSA,A,3,13,17,14,15,19,23,05,24,,,,,1.92,1.00,1.64*05
$GPGSV,2,1,08,05,21,203,36,13,71,115,36,14,36,048,37,15,74,286,38*7C
$GPGSV,2,2,08,17,30,092,37,19,26,122,31,23,23,306,32,24,37,288,33*70
$GPGLL,3912.32363,N,00918.17406,E,143413.00,A,A*63
$GPRMC,143414.00,A,3912.32363,N,00918.17408,E,0.047,,051221,,,A*75
$GPVTG,,T,,M,0.047,N,0.086,K,A*2E
$GPGGA,143414.00,3912.32363,N,00918.17408,E,1,08,1.00,-1.0,M,44.9,M,,*73
$GPGSA,A,3,13,17,14,15,19,23,05,24,,,,,1.92,1.00,1.64*05
$GPGSV,2,1,08,05,21,203,35,13,71,115,36,14,36,048,37,15,74,286,39*7E
$GPGSV,2,2,08,17,30,092,34,19,26,122,31,23,23,306,33,24,37,288,33*72
$GPGLL,3912.32363,N,00918.17408,E,143414.00,A,A*6A
$GPRMC,143415.00,A,3912.32366,N,00918.17410,E,0.033,,051221,,,A*7B
$GPVTG,,T,,M,0.033,N,0.061,K,A*24
$GPGGA,143415.00,3912.32366,N,00918.17410,E,1,08,1.00,-0.8,M,44.9,M,,*77
$GPGSA,A,3,13,17,14,15,19,23,05,24,,,,,1.92,1.00,1.64*05
$GPGSV,2,1,08,05,21,203,36,13,71,115,37,14,36,048,37,15,74,286,39*7C
$GPGSV,2,2,08,17,30,092,34,19,26,122,30,23,23,306,34,24,37,288,32*75
$GPGLL,3912.32366,N,00918.17410,E,143415.00,A,A*67
$GPRMC,143416.00,A,3912.32368,N,00918.17413,E,0.011,,051221,,,A*75
$GPVTG,,T,,M,0.011,N,0.021,K,A*20
$GPGGA,143416.00,3912.32368,N,00918.17413,E,1,08,1.00,-0.6,M,44.9,M,,*77
$GPGSA,A,3,13,17,14,15,19,23,05,24,,,,,1.92,1.00,1.64*05
$GPGSV,2,1,08,05,21,203,37,13,71,115,37,14,36,048,37,15,74,286,38*7C
$GPGSV,2,2,08,17,30,092,35,19,26,122,29,23,23,306,35,24,37,288,30*7F
$GPGLL,3912.32368,N,00918.17413,E,143416.00,A,A*69
$GPRMC,143417.00,A,3912.32372,N,00918.17411,E,0.018,,051221,,,A*74
$GPVTG,,T,,M,0.018,N,0.033,K,A*2A
$GPGGA,143417.00,3912.32372,N,00918.17411,E,1,08,1.00,-0.6,M,44.9,M,,*7F
$GPGSA,A,3,13,17,14,15,19,23,05,24,,,,,1.92,1.00,1.64*05
$GPGSV,2,1,08,05,21,203,37,13,71,115,38,14,36,048,37,15,74,286,38*73
$GPGSV,2,2,08,17,30,092,35,19,26,122,28,23,23,306,36,24,37,288,30*7D
$GPGLL,3912.32372,N,00918.17411,E,143417.00,A,A*61
$GPRMC,143418.00,A,3912.32372,N,00918.17408,E,0.053,,051221,,,A*7C
$GPVTG,,T,,M,0.053,N,0.098,K,A*24
$GPGGA,143418.00,3912.32372,N,00918.17408,E,1,08,1.00,-0.7,M,44.9,M,,*79
$GPGSA,A,3,13,17,14,15,19,23,05,24,,,,,1.92,1.00,1.64*05
$GPGSV,2,1,08,05,21,203,35,13,71,115,38,14,36,048,37,15,74,286,41*7F
$GPGSV,2,2,08,17,30,092,33,19,26,122,28,23,23,306,36,24,37,288,28*72
$GPGLL,3912.32372,N,00918.17408,E,143418.00,A,A*66
$GPRMC,143419.00,A,3912.32373,N,00918.17408,E,0.033,,051221,,,A*7A
$GPVTG,,T,,M,0.033,N,0.060,K,A*25
$GPGGA,143419.00,3912.32373,N,00918.17408,E,1,08,1.00,-0.9,M,44.9,M,,*77
$GPGSA,A,3,13,17,14,15,19,23,05,24,,,,,1.92,1.00,1.64*05
$GPGSV,2,1,08,05,21,203,34,13,71,115,38,14,36,048,33,15,75,286,41*7B
$GPGSV,2,2,08,17,30,092,32,19,26,122,31,23,23,306,35,24,37,288,29*79
$GPGLL,3912.32373,N,00918.17408,E,143419.00,A,A*66
$GPRMC,143420.00,A,3912.32376,N,00918.17408,E,0.084,,051221,,,A*79
$GPVTG,,T,,M,0.084,N,0.155,K,A*2E
$GPGGA,143420.00,3912.32376,N,00918.17408,E,1,08,1.00,-1.1,M,44.9,M,,*71
$GPGSA,A,3,13,17,14,15,19,23,05,24,,,,,1.92,1.00,1.64*05
$GPGSV,2,1,08,05,21,203,34,13,71,115,38,14,36,048,34,15,75,286,40*7D
$GPGSV,2,2,08,17,30,091,25,19,26,122,33,23,23,306,29,24,37,288,30*7B
$GPGLL,3912.32376,N,00918.17408,E,143420.00,A,A*69
$GPRMC,143421.00,A,3912.32375,N,00918.17404,E,0.020,,051221,,,A*79
$GPVTG,,T,,M,0.020,N,0.037,K,A*25
$GPGGA,143421.00,3912.32375,N,00918.17404,E,1,08,1.00,-1.3,M,44.9,M,,*7D
$GPGSA,A,3,13,17,14,15,19,23,05,24,,,,,1.92,1.00,1.64*05
$GPGSV,2,1,08,05,21,203,35,13,71,115,38,14,36,048,37,15,75,286,40*7F
$GPGSV,2,2,08,17,30,091,35,19,26,122,33,23,23,306,28,24,37,288,29*73
$GPGLL,3912.32375,N,00918.17404,E,143421.00,A,A*67
$GPRMC,143422.00,A,3912.32374,N,00918.17401,E,0.028,,051221,,,A*76
$GPVTG,,T,,M,0.028,N,0.052,K,A*2E
$GPGGA,143422.00,3912.32374,N,00918.17401,E,1,08,1.00,-1.4,M,44.9,M,,*7D
$GPGSA,A,3,13,17,14,15,19,23,05,24,,,,,1.92,1.00,1.64*05
$GPGSV,2,1,08,05,21,203,35,13,71,115,38,14,36,048,37,15,75,286,38*70
$GPGSV,2,2,08,17,30,091,36,19,26,122,31,23,23,306,31,24,37,288,26*75
$GPGLL,3912.32374,N,00918.17401,E,143422.00,A,A*60
$GPRMC,143423.00,A,3912.32373,N,00918.17406,E,0.018,,051221,,,A*74
$GPVTG,,T,,M,0.018,N,0.033,K,A*2A
$GPGGA,143423.00,3912.32373,N,00918.17406,E,1,08,1.00,-1.5,M,44.9,M,,*7D
$GPGSA,A,3,13,17,14,15,19,23,05,24,,,,,1.92,1.00,1.64*05
$GPGSV,2,1,08,05,21,203,35,13,71,115,38,14,36,048,36,15,75,286,39*70
$GPGSV,2,2,08,17,30,091,37,19,26,122,30,23,23,305,34,24,37,288,27*72
$GPGLL,3912.32373,N,00918.17406,E,143423.00,A,A*61
$GPRMC,143424.00,A,3912.32368,N,00918.17414,E,0.014,,051221,,,A*76
$GPVTG,,T,,M,0.014,N,0.026,K,A*22
$GPGGA,143424.00,3912.32368,N,00918.17414,E,1,08,1.00,-1.7,M,44.9,M,,*71
$GPGSA,A,3,13,17,14,15,19,23,05,24,,,,,1.92,1.00,1.64*05
$GPGSV,2,1,08,05,21,203,34,13,71,115,37,14,36,048,37,15,75,286,40*71
$GPGSV,2,2,08,17,30,091,38,19,26,122,29,23,23,305,34,24,37,288,30*73
$GPGLL,3912.32368,N,00918.17414,E,143424.00,A,A*6F
$GPRMC,143425.00,A,3912.32361,N,00918.17418,E,0.021,,051221,,,A*74
$GPVTG,,T,,M,0.021,N,0.038,K,A*2B
$GPGGA,143425.00,3912.32361,N,00918.17418,E,1,08,1.00,-1.8,M,44.9,M,,*7A
$GPGSA,A,3,13,17,14,15,19,23,05,24,,,,,1.92,1.00,1.64*05
$GPGSV,2,1,08,05,21,203,34,13,71,115,37,14,36,048,37,15,75,286,40*71
$GPGSV,2,2,08,17,30,091,38,19,26,122,28,23,23,305,34,24,37,288,33*71
$GPGLL,3912.32361,N,00918.17418,E,143425.00,A,A*6B
$GPRMC,143426.00,A,3912.32358,N,00918.17419,E,0.015,,051221,,,A*7B
$GPVTG,,T,,M,0.015,N,0.028,K,A*2D
$GPGGA,143426.00,3912.32358,N,00918.17419,E,1,08,1.00,-1.9,M,44.9,M,,*73
$GPGSA,A,3,13,17,14,15,19,23,05,24,,,,,1.92,1.00,1.64*05
$GPGSV,2,1,08,05,21,203,34,13,71,115,36,14,36,048,36,15,75,286,40*71
$GPGSV,2,2,08,17,30,091,36,19,26,122,28,23,23,305,33,24,37,288,33*78
$GPGLL,3912.32358,N,00918.17419,E,143426.00,A,A*63
$GPRMC,143427.00,A,3912.32357,N,00918.17419,E,0.039,,051221,,,A*7B
$GPVTG,,T,,M,0.039,N,0.072,K,A*2C
$GPGGA,143427.00,3912.32357,N,00918.17419,E,1,08,1.00,-1.9,M,44.9,M,,*7D
$GPGSA,A,3,13,17,14,15,19,23,05,24,,,,,1.92,1.00,1.64*05
$GPGSV,2,1,08,05,21,203,35,13,71,115,37,14,36,048,36,15,75,286,39*7F
$GPGSV,2,2,08,17,30,091,35,19,26,122,27,23,23,305,33,24,37,288,32*75
$GPGLL,3912.32357,N,00918.17419,E,143427.00,A,A*6D
$GPRMC,143428.00,A,3912.32359,N,00918.17417,E,0.037,,051221,,,A*7A
$GPVTG,,T,,M,0.037,N,0.069,K,A*28
$GPGGA,143428.00,3912.32359,N,00918.17417,E,1,08,1.00,-1.9,M,44.9,M,,*72
$GPGSA,A,3,13,17,14,15,19,23,05,24,,,,,1.92,1.00,1.64*05
$GPGSV,2,1,08,05,21,203,36,13,71,115,38,14,36,048,36,15,75,286,38*72
$GPGSV,2,2,08,17,30,091,35,19,26,122,27,23,23,305,30,24,37,288,33*77
$GPGLL,3912.32359,N,00918.17417,E,143428.00,A,A*62
$GPRMC,143429.00,A,3912.32363,N,00918.17417,E,0.017,,051221,,,A*70
$GPVTG,,T,,M,0.017,N,0.031,K,A*27
$GPGGA,143429.00,3912.32363,N,00918.17417,E,1,08,1.00,-2.0,M,44.9,M,,*70
$GPGSA,A,3,13,17,14,15,19,23,05,24,,,,,1.92,1.00,1.64*05
$GPGSV,2,1,08,05,21,203,36,13,71,115,38,14,36,048,35,15,75,286,38*71
$GPGSV,2,2,08,17,30,091,37,19,26,122,27,23,23,305,30,24,37,288,35*73
$GPGLL,3912.32363,N,00918.17417,E,143429.00,A,A*6A
$GPRMC,143430.00,A,3912.32366,N,00918.17418,E,0.021,,051221,,,A*77
$GPVTG,,T,,M,0.021,N,0.038,K,A*2B
$GPGGA,143430.00,3912.32366,N,00918.17418,E,1,08,1.00,-2.2,M,44.9,M,,*70
$GPGSA,A,3,13,17,14,15,19,23,05,24,,,,,1.92,1.00,1.64*05
$GPGSV,2,1,08,05,21,203,35,13,71,115,38,14,36,048,31,15,75,286,39*77
$GPGSV,2,2,08,17,30,091,37,19,26,122,28,23,23,305,34,24,37,288,36*7B
$GPGLL,3912.32366,N,00918.17418,E,143430.00,A,A*68
$GPRMC,143431.00,A,3912.32371,N,00918.17417,E,0.013,,051221,,,A*7E
$GPVTG,,T,,M,0.013,N,0.025,K,A*26
$GPGGA,143431.00,3912.32371,N,00918.17417,E,1,08,1.00,-2.4,M,44.9,M,,*7E
$GPGSA,A,3,13,17,14,15,19,23,05,24,,,,,1.92,1.00,1.64*05
$GPGSV,2,1,08,05,21,203,36,13,71,115,39,14,36,048,32,15,75,286,40*78
$GPGSV,2,2,08,17,30,091,37,19,26,122,29,23,23,305,35,24,37,288,36*7B
$GPGLL,3912.32371,N,00918.17417,E,143431.00,A,A*60
$GPRMC,143432.00,A,3912.32375,N,00918.17421,E,0.050,,051221,,,A*7B
$GPVTG,,T,,M,0.050,N,0.092,K,A*2D
$GPGGA,143432.00,3912.32375,N,00918.17421,E,1,08,1.00,-2.4,M,44.9,M,,*7C
$GPGSA,A,3,13,17,14,15,19,23,05,24,,,,,1.92,1.00,1.64*05
$GPGSV,2,1,08,05,21,203,37,13,71,115,39,14,36,048,36,15,75,286,40*7D
$GPGSV,2,2,08,17,30,091,36,19,26,122,30,23,23,305,36,24,37,288,36*71
$GPGLL,3912.32375,N,00918.17421,E,143432.00,A,A*62
$GPRMC,143433.00,A,3912.32380,N,00918.17426,E,0.029,,051221,,,A*79
$GPVTG,,T,,M,0.029,N,0.054,K,A*29
$GPGGA,143433.00,3912.32380,N,00918.17426,E,1,08,1.00,-2.4,M,44.9,M,,*70
$GPGSA,A,3,13,17,14,15,19,23,05,24,,,,,1.92,1.00,1.64*05
$GPGSV,2,1,08,05,21,203,36,13,71,115,38,14,36,048,34,15,75,286,40*7F
$GPGSV,2,2,08,17,30,091,34,19,26,122,30,23,23,305,35,24,37,288,35*73
$GPGLL,3912.32380,N,00918.17426,E,143433.00,A,A*6E
$GPRMC,143434.00,A,3912.32389,N,00918.17432,E,0.137,,051221,,,A*7C
$GPVTG,,T,,M,0.137,N,0.253,K,A*22
$GPGGA,143434.00,3912.32389,N,00918.17432,E,1,08,1.00,-2.5,M,44.9,M,,*7A
$GPGSA,A,3,13,17,14,15,19,23,05,24,,,,,1.92,1.00,1.64*05
$GPGSV,3,1,09,05,21,203,36,13,71,115,39,14,36,048,30,15,75,286,40*7A
$GPGSV,3,2,09,17,30,091,34,19,26,122,31,23,23,305,35,24,37,288,36*71
$GPGSV,3,3,09,28,,,34*7D
$GPGLL,3912.32389,N,00918.17432,E,143434.00,A,A*65
$GPRMC,143435.00,A,3912.32392,N,00918.17435,E,0.018,,051221,,,A*7C
$GPVTG,,T,,M,0.018,N,0.033,K,A*2A
$GPGGA,143435.00,3912.32392,N,00918.17435,E,1,08,1.00,-2.6,M,44.9,M,,*75
$GPGSA,A,3,13,17,14,15,19,23,05,24,,,,,1.92,1.00,1.64*05
$GPGSV,3,1,09,05,21,203,34,13,71,115,38,14,36,048,29,15,75,286,41*70
$GPGSV,3,2,09,17,30,091,36,19,26,122,31,23,23,305,36,24,37,288,35*73
$GPGSV,3,3,09,28,,,34*7D
$GPGLL,3912.32392,N,00918.17435,E,143435.00,A,A*69
$GPRMC,143436.00,A,3912.32389,N,00918.17435,E,0.007,,051221,,,A*7B
$GPVTG,,T,,M,0.007,N,0.012,K,A*27
$GPGGA,143436.00,3912.32389,N,00918.17435,E,1,08,1.00,-2.5,M,44.9,M,,*7F
$GPGSA,A,3,13,17,14,15,19,23,05,24,,,,,1.92,1.00,1.64*05
$GPGSV,3,1,09,05,21,203,34,13,71,115,38,14,36,048,36,15,75,286,40*7F
$GPGSV,3,2,09,17,30,091,37,19,26,122,30,23,23,305,36,24,37,288,35*73
$GPGSV,3,3,09,28,,,33*7A
$GPGLL,3912.32389,N,00918.17435,E,143436.00,A,A*60
$GPRMC,143437.00,A,3912.32390,N,00918.17436,E,0.057,,051221,,,A*74
$GPVTG,,T,,M,0.057,N,0.106,K,A*26
$GPGGA,143437.00,3912.32390,N,00918.17436,E,1,08,1.00,-2.5,M,44.9,M,,*75
$GPGSA,A,3,13,17,14,15,19,23,05,24,,,,,1.92,1.00,1.64*05
$GPGSV,3,1,11,05,21,203,30,13,71,115,35,14,36,048,31,15,75,286,34*7B
$GPGSV,3,2,11,17,30,091,35,19,26,122,29,23,23,305,33,24,37,288,31*71
$GPGSV,3,3,11,28,,,26,33,38,216,34,39,42,156,31*72
$GPGLL,3912.32390,N,00918.17436,E,143437.00,A,A*6A
$GPRMC,143438.00,A,3912.32383,N,00918.17436,E,0.012,,051221,,,A*78
$GPVTG,,T,,M,0.012,N,0.022,K,A*20
$GPGGA,143438.00,3912.32383,N,00918.17436,E,1,08,1.00,-2.3,M,44.9,M,,*7E
$GPGSA,A,3,13,17,14,15,19,23,05,24,,,,,1.92,1.00,1.64*05
$GPGSV,3,1,09,05,21,203,32,13,71,116,35,14,36,048,35,15,75,286,39*7A
$GPGSV,3,2,09,17,30,091,39,19,26,122,29,23,23,305,36,24,37,288,35*75
$GPGSV,3,3,09,28,,,26*7E
$GPGLL,3912.32383,N,00918.17436,E,143438.00,A,A*67
$GPRMC,143439.00,A,3912.32380,N,00918.17432,E,0.036,,051221,,,A*78
$GPVTG,,T,,M,0.036,N,0.066,K,A*26
$GPGGA,143439.00,3912.32380,N,00918.17432,E,1,08,1.00,-2.3,M,44.9,M,,*78
$GPGSA,A,3,13,17,14,15,19,23,05,24,,,,,1.92,1.00,1.64*05
$GPGSV,3,1,09,05,21,203,33,13,71,116,35,14,36,048,36,15,75,286,38*79
$GPGSV,3,2,09,17,30,091,39,19,26,122,29,23,23,305,34,24,37,288,35*77
$GPGSV,3,3,09,28,,,26*7E
$GPGLL,3912.32380,N,00918.17432,E,143439.00,A,A*61
$GPRMC,143440.00,A,3912.32384,N,00918.17434,E,0.101,,051221,,,A*71
$GPVTG,,T,,M,0.101,N,0.188,K,A*22
$GPGGA,143440.00,3912.32384,N,00918.17434,E,1,08,1.00,-2.3,M,44.9,M,,*74
$GPGSA,A,3,13,17,14,15,19,23,05,24,,,,,1.92,1.00,1.64*05
$GPGSV,3,1,09,05,21,203,31,13,71,116,33,14,36,048,37,15,75,285,38*7F
$GPGSV,3,2,09,17,30,091,39,19,26,122,28,23,23,305,32,24,37,288,34*71
$GPGSV,3,3,09,28,,,25*7D
$GPGLL,3912.32384,N,00918.17434,E,143440.00,A,A*6D
$GPRMC,143441.00,A,3912.32384,N,00918.17436,E,0.021,,051221,,,A*71
$GPVTG,,T,,M,0.021,N,0.039,K,A*2A
$GPGGA,143441.00,3912.32384,N,00918.17436,E,1,08,1.00,-2.2,M,44.9,M,,*76
$GPGSA,A,3,13,17,14,15,19,23,05,24,,,,,1.92,1.00,1.64*05
$GPGSV,3,1,09,05,21,203,30,13,71,116,29,14,36,048,36,15,75,285,38*74
$GPGSV,3,2,09,17,31,091,39,19,26,122,28,23,23,305,30,24,37,288,34*72
$GPGSV,3,3,09,28,,,25*7D
$GPGLL,3912.32384,N,00918.17436,E,143441.00,A,A*6E
$GPRMC,143442.00,A,3912.32388,N,00918.17438,E,0.048,,051221,,,A*7F
$GPVTG,,T,,M,0.048,N,0.089,K,A*2E
$GPGGA,143442.00,3912.32388,N,00918.17438,E,1,08,1.00,-2.1,M,44.9,M,,*74
$GPGSA,A,3,13,17,14,15,19,23,05,24,,,,,1.92,1.00,1.64*05
$GPGSV,3,1,09,05,21,203,30,13,71,116,27,14,36,048,32,15,75,285,38*7E
$GPGSV,3,2,09,17,31,091,38,19,26,122,27,23,23,305,31,24,37,288,34*7D
$GPGSV,3,3,09,28,,,27*7F
$GPGLL,3912.32388,N,00918.17438,E,143442.00,A,A*6F
!AIVDM,1,1,,B,H3P=Aa4TCBD5WcKj7<Ik001@341t,0*0C
$GPRMC,143443.00,A,3912.32390,N,00918.17441,E,0.045,,051221,,,A*74
$GPVTG,,T,,M,0.045,N,0.083,K,A*29
$GPGGA,143443.00,3912.32390,N,00918.17441,E,1,08,1.00,-2.0,M,44.9,M,,*73
$GPGSA,A,3,13,17,14,15,19,23,05,24,,,,,1.92,1.00,1.64*05
$GPGSV,3,1,09,05,21,203,30,13,71,116,27,14,36,048,32,15,75,285,37*71
$GPGSV,3,2,09,17,31,091,37,19,26,122,28,23,23,305,33,24,37,288,33*78
$GPGSV,3,3,09,28,,,34*7D
$GPGLL,3912.32390,N,00918.17441,E,143443.00,A,A*69
$GPRMC,143444.00,A,3912.32391,N,00918.17442,E,0.042,,051221,,,A*76
$GPVTG,,T,,M,0.042,N,0.078,K,A*2A
$GPGGA,143444.00,3912.32391,N,00918.17442,E,1,08,1.00,-1.9,M,44.9,M,,*7C
$GPGSA,A,3,13,17,14,15,19,23,05,24,,,,,1.92,1.00,1.64*05
$GPGSV,3,1,09,05,21,203,30,13,71,116,26,14,36,048,27,15,75,285,37*74
$GPGSV,3,2,09,17,31,091,36,19,26,122,28,23,23,305,33,24,37,288,32*78
$GPGSV,3,3,09,28,,,33*7A
$GPGLL,3912.32391,N,00918.17442,E,143444.00,A,A*6C
$GPRMC,143445.00,A,3912.32391,N,00918.17444,E,0.030,,051221,,,A*74
$GPVTG,,T,,M,0.030,N,0.055,K,A*20
$GPGGA,143445.00,3912.32391,N,00918.17444,E,1,08,1.00,-1.8,M,44.9,M,,*7A
$GPGSA,A,3,13,17,14,15,19,23,05,24,,,,,1.91,1.00,1.64*06
$GPGSV,3,1,09,05,21,203,30,13,71,116,25,14,36,048,30,15,75,285,37*71
$GPGSV,3,2,09,17,31,091,37,19,26,122,29,23,23,305,33,24,37,288,33*79
$GPGSV,3,3,09,28,,,34*7D
$GPGLL,3912.32391,N,00918.17444,E,143445.00,A,A*6B
$GPRMC,143446.00,A,3912.32390,N,00918.17444,E,0.071,,051221,,,A*73
$GPVTG,,T,,M,0.071,N,0.131,K,A*26
$GPGGA,143446.00,3912.32390,N,00918.17444,E,1,08,1.00,-1.7,M,44.9,M,,*77
$GPGSA,A,3,13,17,14,15,19,23,05,24,,,,,1.91,1.00,1.64*06
$GPGSV,3,1,09,05,21,203,30,13,71,116,25,14,36,048,34,15,75,285,38*7A
$GPGSV,3,2,09,17,31,091,37,19,26,122,30,23,23,305,32,24,37,288,33*70
$GPGSV,3,3,09,28,,,32*7B
$GPGLL,3912.32390,N,00918.17444,E,143446.00,A,A*69
$GPRMC,143447.00,A,3912.32392,N,00918.17444,E,0.056,,051221,,,A*75
$GPVTG,,T,,M,0.056,N,0.103,K,A*22
$GPGGA,143447.00,3912.32392,N,00918.17444,E,1,08,1.00,-1.6,M,44.9,M,,*75
$GPGSA,A,3,13,17,14,15,19,23,05,24,,,,,1.91,1.00,1.64*06
$GPGSV,3,1,09,05,21,203,31,13,71,116,31,14,36,048,35,15,75,285,36*71
$GPGSV,3,2,09,17,31,091,37,19,26,122,30,23,23,305,31,24,37,288,32*72
$GPGSV,3,3,09,28,,,32*7B
$GPGLL,3912.32392,N,00918.17444,E,143447.00,A,A*6A
$GPRMC,143448.00,A,3912.32393,N,00918.17443,E,0.045,,051221,,,A*7E
$GPVTG,,T,,M,0.045,N,0.084,K,A*2E
$GPGGA,143448.00,3912.32393,N,00918.17443,E,1,08,1.00,-1.6,M,44.9,M,,*7C
$GPGSA,A,3,13,17,14,15,19,23,05,24,,,,,1.91,1.00,1.64*06
$GPGSV,3,1,09,05,21,203,32,13,71,116,33,14,36,048,35,15,75,285,36*70
$GPGSV,3,2,09,17,31,091,37,19,26,122,31,23,23,305,29,24,37,288,30*78
$GPGSV,3,3,09,28,,,32*7B
$GPGLL,3912.32393,N,00918.17443,E,143448.00,A,A*63
$GPRMC,143449.00,A,3912.32383,N,00918.17439,E,0.011,,051221,,,A*72
$GPVTG,,T,,M,0.011,N,0.020,K,A*21
$GPGGA,143449.00,3912.32383,N,00918.17439,E,1,08,1.00,-1.5,M,44.9,M,,*72
$GPGSA,A,3,13,17,14,15,19,23,05,24,,,,,1.91,1.00,1.64*06
$GPGSV,3,1,09,05,21,203,31,13,71,116,33,14,36,048,37,15,75,285,36*71
$GPGSV,3,2,09,17,31,091,36,19,26,122,31,23,23,305,16,24,37,288,30*75
$GPGSV,3,3,09,28,,,31*78
$GPGLL,3912.32383,N,00918.17439,E,143449.00,A,A*6E
$GPRMC,143450.00,A,3912.32371,N,00918.17434,E,0.044,,051221,,,A*7A
$GPVTG,,T,,M,0.044,N,0.082,K,A*29
$GPGGA,143450.00,3912.32371,N,00918.17434,E,1,08,1.00,-1.4,M,44.9,M,,*7B
$GPGSA,A,3,13,17,14,15,19,23,05,24,,,,,1.91,1.00,1.64*06
$GPGSV,3,1,09,05,21,203,31,13,71,116,33,14,36,048,39,15,75,285,37*7E
$GPGSV,3,2,09,17,31,091,36,19,26,122,32,23,23,305,22,24,37,288,24*74
$GPGSV,3,3,09,28,,,30*79
$GPGLL,3912.32371,N,00918.17434,E,143450.00,A,A*66
$GPRMC,143451.00,A,3912.32358,N,00918.17430,E,0.085,,051221,,,A*79
$GPVTG,,T,,M,0.085,N,0.158,K,A*22
$GPGGA,143451.00,3912.32358,N,00918.17430,E,1,08,1.00,-1.2,M,44.9,M,,*73
$GPGSA,A,3,13,17,14,15,19,23,05,24,,,,,1.91,1.00,1.64*06
$GPGSV,3,1,09,05,21,203,32,13,71,116,33,14,36,048,38,15,75,285,38*73
$GPGSV,3,2,09,17,31,091,37,19,26,122,32,23,23,305,28,24,37,288,25*7E
$GPGSV,3,3,09,28,,,29*71
$GPGLL,3912.32358,N,00918.17430,E,143451.00,A,A*68
$GPRMC,143452.00,A,3912.32349,N,00918.17426,E,0.042,,051221,,,A*76
$GPVTG,,T,,M,0.042,N,0.077,K,A*25
$GPGGA,143452.00,3912.32349,N,00918.17426,E,1,08,1.00,-1.0,M,44.9,M,,*75
$GPGSA,A,3,13,17,14,15,19,23,05,24,,,,,1.91,1.00,1.64*06
$GPGSV,3,1,09,05,21,203,31,13,71,116,33,14,36,048,38,15,75,285,37*7F
$GPGSV,3,2,09,17,31,091,37,19,26,122,32,23,23,305,25,24,37,288,27*71
$GPGSV,3,3,09,28,,,29*71
$GPGLL,3912.32349,N,00918.17426,E,143452.00,A,A*6C
$GPRMC,143453.00,A,3912.32340,N,00918.17424,E,0.039,,051221,,,A*70
$GPVTG,,T,,M,0.039,N,0.073,K,A*2D
$GPGGA,143453.00,3912.32340,N,00918.17424,E,1,08,1.00,-0.6,M,44.9,M,,*78
$GPGSA,A,3,13,17,14,15,19,23,05,24,,,,,1.91,1.00,1.64*06
$GPGSV,3,1,09,05,21,203,31,13,71,116,35,14,36,048,38,15,75,285,38*76
$GPGSV,3,2,09,17,31,091,37,19,26,122,33,23,23,305,25,24,37,288,30*76
$GPGSV,3,3,09,28,,,29*71
$GPGLL,3912.32340,N,00918.17424,E,143453.00,A,A*66
$GPRMC,143454.00,A,3912.32335,N,00918.17422,E,0.015,,051221,,,A*7D
$GPVTG,,T,,M,0.015,N,0.027,K,A*22
$GPGGA,143454.00,3912.32335,N,00918.17422,E,1,08,1.00,-0.2,M,44.9,M,,*7F
$GPGSA,A,3,13,17,14,15,19,23,05,24,,,,,1.91,1.00,1.64*06
$GPGSV,3,1,09,05,21,203,33,13,71,116,35,14,36,048,37,15,75,285,40*74
$GPGSV,3,2,09,17,31,091,37,19,26,122,33,23,23,305,32,24,37,288,31*71
$GPGSV,3,3,09,28,,,28*70
$GPGLL,3912.32335,N,00918.17422,E,143454.00,A,A*65
$GPRMC,143455.00,A,3912.32331,N,00918.17423,E,0.041,,051221,,,A*78
$GPVTG,,T,,M,0.041,N,0.076,K,A*27
$GPGGA,143455.00,3912.32331,N,00918.17423,E,1,08,1.00,0.1,M,44.9,M,,*55
$GPGSA,A,3,13,17,14,15,19,23,05,24,,,,,1.91,1.00,1.64*06
$GPGSV,3,1,09,05,21,203,33,13,71,116,35,14,36,048,35,15,75,285,39*78
$GPGSV,3,2,09,17,31,091,36,19,26,122,31,23,23,305,33,24,37,288,31*73
$GPGSV,3,3,09,28,,,25*7D
$GPGLL,3912.32331,N,00918.17423,E,143455.00,A,A*61
$GPRMC,143456.00,A,3912.32327,N,00918.17421,E,0.025,,051221,,,A*7C
$GPVTG,,T,,M,0.025,N,0.047,K,A*27
$GPGGA,143456.00,3912.32327,N,00918.17421,E,1,08,1.00,0.3,M,44.9,M,,*51
$GPGSA,A,3,13,17,14,15,19,23,05,24,,,,,1.91,1.00,1.64*06
$GPGSV,3,1,09,05,21,203,33,13,71,116,35,14,36,048,36,15,75,285,39*7B
$GPGSV,3,2,09,17,31,091,35,19,26,122,30,23,23,305,34,24,37,288,31*76
$GPGSV,3,3,09,28,,,25*7D
$GPGLL,3912.32327,N,00918.17421,E,143456.00,A,A*67
$GPRMC,143457.00,A,3912.32322,N,00918.17420,E,0.018,,051221,,,A*77
$GPVTG,,T,,M,0.018,N,0.034,K,A*2D
$GPGGA,143457.00,3912.32322,N,00918.17420,E,1,08,1.00,0.5,M,44.9,M,,*52
$GPGSA,A,3,13,17,14,15,19,23,05,24,,,,,1.91,1.00,1.64*06
$GPGSV,3,1,09,05,21,203,34,13,71,116,35,14,36,048,37,15,75,285,39*7D
$GPGSV,3,2,09,17,31,091,34,19,26,122,30,23,23,305,34,24,37,288,31*77
$GPGSV,3,3,09,28,,,25*7D
$GPGLL,3912.32322,N,00918.17420,E,143457.00,A,A*62
$GPRMC,143458.00,A,3912.32315,N,00918.17419,E,0.039,,051221,,,A*75
$GPVTG,,T,,M,0.039,N,0.072,K,A*2C
$GPGGA,143458.00,3912.32315,N,00918.17419,E,1,08,1.00,0.7,M,44.9,M,,*51
$GPGSA,A,3,13,17,14,15,19,23,05,24,,,,,1.91,1.00,1.64*06
$GPGSV,3,1,09,05,21,203,33,13,71,116,34,14,36,048,37,15,75,285,40*75
$GPGSV,3,2,09,17,31,091,35,19,26,122,31,23,23,305,35,24,37,288,31*76
$GPGSV,3,3,09,28,,,22*7A
$GPGLL,3912.32315,N,00918.17419,E,143458.00,A,A*63
$GPRMC,143459.00,A,3912.32310,N,00918.17421,E,0.062,,051221,,,A*74
$GPVTG,,T,,M,0.062,N,0.114,K,A*23
$GPGGA,143459.00,3912.32310,N,00918.17421,E,1,08,1.00,0.9,M,44.9,M,,*50
$GPGSA,A,3,13,17,14,15,19,23,05,24,,,,,1.91,1.00,1.64*06
$GPGSV,3,1,09,05,21,203,34,13,71,116,34,14,36,048,37,15,75,285,39*7C
$GPGSV,3,2,09,17,31,091,36,19,26,122,32,23,23,305,34,24,37,288,30*76
$GPGSV,3,3,09,28,,,20*78
$GPGLL,3912.32310,N,00918.17421,E,143459.00,A,A*6C
$GPRMC,143500.00,A,3912.32308,N,00918.17423,E,0.035,,051221,,,A*70
$GPVTG,,T,,M,0.035,N,0.065,K,A*26
$GPGGA,143500.00,3912.32308,N,00918.17423,E,1,08,1.00,1.1,M,44.9,M,,*5F
$GPGSA,A,3,13,17,14,15,19,23,05,24,,,,,1.91,1.00,1.64*06
$GPGSV,3,1,09,05,21,203,33,13,71,116,37,14,36,048,36,15,75,285,38*78
$GPGSV,3,2,09,17,31,091,35,19,26,122,32,23,23,305,33,24,37,288,30*72
$GPGSV,3,3,09,28,,,21*79
$GPGLL,3912.32308,N,00918.17423,E,143500.00,A,A*6A
$GPRMC,143501.00,A,3912.32304,N,00918.17426,E,0.028,,051221,,,A*74
$GPVTG,,T,,M,0.028,N,0.051,K,A*2D
$GPGGA,143501.00,3912.32304,N,00918.17426,E,1,08,1.00,1.2,M,44.9,M,,*54
$GPGSA,A,3,13,17,14,15,19,23,05,24,,,,,1.91,1.00,1.64*06
$GPGSV,3,1,09,05,21,203,32,13,71,116,37,14,36,048,36,15,75,285,39*78
$GPGSV,3,2,09,17,31,091,36,19,26,122,32,23,23,305,35,24,37,288,31*76
$GPGSV,3,3,09,28,,,22*7A
$GPGLL,3912.32304,N,00918.17426,E,143501.00,A,A*62
$GPRMC,143502.00,A,3912.32303,N,00918.17427,E,0.039,,051221,,,A*71
$GPVTG,,T,,M,0.039,N,0.073,K,A*2D
$GPGGA,143502.00,3912.32303,N,00918.17427,E,1,08,0.99,1.3,M,44.9,M,,*51
$GPGSA,A,3,13,17,14,15,19,23,05,24,,,,,1.91,0.99,1.64*07
$GPGSV,3,1,09,05,21,203,33,13,71,116,37,14,36,048,37,15,75,285,39*78
$GPGSV,3,2,09,17,31,091,36,19,26,122,32,23,23,305,35,24,37,288,32*75
$GPGSV,3,3,09,28,,,20*78
$GPGLL,3912.32303,N,00918.17427,E,143502.00,A,A*67
$GPRMC,143503.00,A,3912.32302,N,00918.17430,E,0.047,,051221,,,A*7E
$GPVTG,,T,,M,0.047,N,0.088,K,A*20
$GPGGA,143503.00,3912.32302,N,00918.17430,E,1,08,0.99,1.3,M,44.9,M,,*57
$GPGSA,A,3,13,17,14,15,19,23,05,24,,,,,1.91,0.99,1.64*07
$GPGSV,3,1,09,05,21,203,34,13,71,116,37,14,36,048,36,15,75,285,39*7E
$GPGSV,3,2,09,17,31,091,35,19,26,122,33,23,23,305,35,24,37,288,32*77
$GPGSV,3,3,09,28,,,17*7C
$GPGLL,3912.32302,N,00918.17430,E,143503.00,A,A*61
$GPRMC,143504.00,A,3912.32301,N,00918.17429,E,0.035,,051221,,,A*77
$GPVTG,,T,,M,0.035,N,0.064,K,A*27
$GPGGA,143504.00,3912.32301,N,00918.17429,E,1,08,0.99,1.3,M,44.9,M,,*5B
$GPGSA,A,3,13,17,14,15,19,23,05,24,,,,,1.91,0.99,1.64*07
$GPGSV,3,1,09,05,21,203,33,13,71,116,37,14,36,048,37,15,75,285,39*78
$GPGSV,3,2,09,17,31,091,36,19,26,122,33,23,23,305,34,24,37,288,31*76
$GPGSV,3,3,09,28,,,29*71
$GPGLL,3912.32301,N,00918.17429,E,143504.00,A,A*6D
$GPRMC,143505.00,A,3912.32297,N,00918.17430,E,0.054,,051221,,,A*77
$GPVTG,,T,,M,0.054,N,0.100,K,A*23
$GPGGA,143505.00,3912.32297,N,00918.17430,E,1,08,0.99,1.4,M,44.9,M,,*5B
$GPGSA,A,3,13,17,14,15,19,23,05,24,,,,,1.91,0.99,1.64*07
$GPGSV,3,1,09,05,21,203,33,13,71,116,36,14,36,048,38,15,75,285,39*76
$GPGSV,3,2,09,17,31,091,36,19,26,122,33,23,23,305,35,24,37,288,32*74
$GPGSV,3,3,09,28,,,27*7F
$GPGLL,3912.32297,N,00918.17430,E,143505.00,A,A*6A
$GPRMC,143506.00,A,3912.32296,N,00918.17430,E,0.069,,051221,,,A*7B
$GPVTG,,T,,M,0.069,N,0.127,K,A*28
$GPGGA,143506.00,3912.32296,N,00918.17430,E,1,08,0.99,1.4,M,44.9,M,,*59
$GPGSA,A,3,13,17,14,15,19,23,05,24,,,,,1.91,0.99,1.64*07
$GPGSV,3,1,09,05,21,203,33,13,71,116,36,14,36,048,36,15,75,285,38*79
$GPGSV,3,2,09,17,31,091,34,19,26,122,29,23,23,305,35,24,37,288,29*77
$GPGSV,3,3,09,28,,,27*7F
$GPGLL,3912.32296,N,00918.17430,E,143506.00,A,A*68
$GPRMC,143507.00,A,3912.32296,N,00918.17435,E,0.031,,051221,,,A*72
$GPVTG,,T,,M,0.031,N,0.058,K,A*2C
$GPGGA,143507.00,3912.32296,N,00918.17435,E,1,08,0.99,1.3,M,44.9,M,,*5A
$GPGSA,A,3,13,17,14,15,19,23,05,24,,,,,1.91,0.99,1.64*07
$GPGSV,3,1,09,05,21,203,35,13,71,116,37,14,36,048,36,15,75,285,40*71
$GPGSV,3,2,09,17,31,091,34,19,26,122,29,23,23,305,37,24,37,288,30*7D
$GPGSV,3,3,09,28,,,28*70
$GPGLL,3912.32296,N,00918.17435,E,143507.00,A,A*6C
$GPRMC,143508.00,A,3912.32295,N,00918.17437,E,0.059,,051221,,,A*72
$GPVTG,,T,,M,0.059,N,0.110,K,A*2F
$GPGGA,143508.00,3912.32295,N,00918.17437,E,1,08,0.99,1.2,M,44.9,M,,*55
$GPGSA,A,3,13,17,14,15,19,23,05,24,,,,,1.91,0.99,1.64*07
$GPGSV,3,1,09,05,21,203,35,13,71,116,38,14,36,048,37,15,75,285,40*7F
$GPGSV,3,2,09,17,31,091,34,19,26,122,28,23,23,305,38,24,37,288,33*70
$GPGSV,3,3,09,28,,,28*70
$GPGLL,3912.32295,N,00918.17437,E,143508.00,A,A*62
$GPRMC,143509.00,A,3912.32296,N,00918.17436,E,0.033,,051221,,,A*7D
$GPVTG,,T,,M,0.033,N,0.062,K,A*27
$GPGGA,143509.00,3912.32296,N,00918.17436,E,1,08,0.99,1.1,M,44.9,M,,*55
$GPGSA,A,3,13,17,14,15,19,23,05,24,,,,,1.91,0.99,1.64*07
$GPGSV,3,1,09,05,21,203,33,13,71,116,38,14,36,048,36,15,75,285,40*78
$GPGSV,3,2,09,17,31,091,33,19,26,122,27,23,23,305,37,24,37,288,34*70
$GPGSV,3,3,09,28,,,29*71
$GPGLL,3912.32296,N,00918.17436,E,143509.00,A,A*61
$GPRMC,143510.00,A,3912.32298,N,00918.17435,E,0.063,,051221,,,A*7D
$GPVTG,,T,,M,0.063,N,0.117,K,A*21
$GPGGA,143510.00,3912.32298,N,00918.17435,E,1,08,0.99,1.0,M,44.9,M,,*51
$GPGSA,A,3,13,17,14,15,19,23,05,24,,,,,1.91,0.99,1.64*07
$GPGSV,3,1,09,05,21,203,34,13,71,116,38,14,36,048,33,15,75,285,40*7A
$GPGSV,3,2,09,17,31,091,33,19,26,122,27,23,23,305,31,24,37,288,34*76
$GPGSV,3,3,09,28,,,31*78
$GPGLL,3912.32298,N,00918.17435,E,143510.00,A,A*64
$GPRMC,143511.00,A,3912.32302,N,00918.17435,E,0.051,,051221,,,A*7F
$GPVTG,,T,,M,0.051,N,0.095,K,A*2B
$GPGGA,143511.00,3912.32302,N,00918.17435,E,1,08,0.99,0.9,M,44.9,M,,*5A
$GPGSA,A,3,13,17,14,15,19,23,05,24,,,,,1.91,0.99,1.64*07
$GPGSV,3,1,09,05,21,203,36,13,71,116,37,14,36,048,33,15,75,285,40*77
$GPGSV,3,2,09,17,31,091,33,19,26,122,29,23,23,305,30,24,37,288,34*79
$GPGSV,3,3,09,28,,,30*79
$GPGLL,3912.32302,N,00918.17435,E,143511.00,A,A*67
$GPRMC,143512.00,A,3912.32306,N,00918.17434,E,0.031,,051221,,,A*7F
$GPVTG,,T,,M,0.031,N,0.057,K,A*23
$GPGGA,143512.00,3912.32306,N,00918.17434,E,1,08,0.99,0.8,M,44.9,M,,*5D
$GPGSA,A,3,13,17,14,15,19,23,05,24,,,,,1.91,0.99,1.64*07
$GPGSV,3,1,09,05,21,203,36,13,71,116,36,14,36,048,34,15,75,285,40*71
$GPGSV,3,2,09,17,31,091,34,19,26,122,32,23,23,305,28,24,37,288,34*7D
$GPGSV,3,3,09,28,,,32*7B
$GPGLL,3912.32306,N,00918.17434,E,143512.00,A,A*61
$GPRMC,143513.00,A,3912.32312,N,00918.17430,E,0.028,,051221,,,A*77
$GPVTG,,T,,M,0.028,N,0.051,K,A*2D
$GPGGA,143513.00,3912.32312,N,00918.17430,E,1,08,0.99,0.8,M,44.9,M,,*5D
$GPGSA,A,3,13,17,14,15,19,23,05,24,,,,,1.91,0.99,1.64*07
$GPGSV,3,1,09,05,21,203,36,13,71,116,36,14,36,048,33,15,75,285,40*76
$GPGSV,3,2,09,17,31,091,33,19,26,122,33,23,23,305,26,24,37,288,33*72
$GPGSV,3,3,09,28,,,30*79
$GPGLL,3912.32312,N,00918.17430,E,143513.00,A,A*61
$GPRMC,143514.00,A,3912.32317,N,00918.17427,E,0.049,,051221,,,A*74
$GPVTG,,T,,M,0.049,N,0.091,K,A*26
$GPGGA,143514.00,3912.32317,N,00918.17427,E,1,08,0.99,0.7,M,44.9,M,,*56
$GPGSA,A,3,13,17,14,15,19,23,05,24,,,,,1.91,0.99,1.64*07
$GPGSV,3,1,09,05,21,203,35,13,71,116,37,14,36,048,31,15,75,285,40*76
$GPGSV,3,2,09,17,31,091,32,19,26,122,31,23,23,305,25,24,37,288,34*75
$GPGSV,3,3,09,28,,,28*70
$GPGLL,3912.32317,N,00918.17427,E,143514.00,A,A*65
$GPRMC,143515.00,A,3912.32321,N,00918.17425,E,0.017,,051221,,,A*79
$GPVTG,,T,,M,0.017,N,0.031,K,A*27
$GPGGA,143515.00,3912.32321,N,00918.17425,E,1,08,0.99,0.6,M,44.9,M,,*51
$GPGSA,A,3,13,17,14,15,19,23,05,24,,,,,1.91,0.99,1.64*07
$GPGSV,3,1,09,05,21,203,33,13,71,116,37,14,36,048,31,15,75,285,40*70
$GPGSV,3,2,09,17,31,091,30,19,26,122,32,23,23,305,26,24,37,288,34*77
$GPGSV,3,3,09,28,,,28*70
$GPGLL,3912.32321,N,00918.17425,E,143515.00,A,A*63
!AIVDM,1,1,,A,B3P=Aa000H:aIeUVtLCQ3wVQnD`b,0*57
$GPRMC,143516.00,A,3912.32325,N,00918.17425,E,0.018,,051221,,,A*71
$GPVTG,,T,,M,0.018,N,0.034,K,A*2D
$GPGGA,143516.00,3912.32325,N,00918.17425,E,1,08,0.99,0.5,M,44.9,M,,*55
$GPGSA,A,3,13,17,14,15,19,23,05,24,,,,,1.91,0.99,1.64*07
$GPGSV,3,1,09,05,21,203,35,13,71,116,36,14,36,048,32,15,75,285,40*74
$GPGSV,3,2,09,17,31,091,31,19,26,122,32,23,23,305,28,24,37,288,33*7F
$GPGSV,3,3,09,28,,,29*71
$GPGLL,3912.32325,N,00918.17425,E,143516.00,A,A*64
$GPRMC,143517.00,A,3912.32327,N,00918.17427,E,0.014,,051221,,,A*7C
$GPVTG,,T,,M,0.014,N,0.025,K,A*21
$GPGGA,143517.00,3912.32327,N,00918.17427,E,1,08,0.99,0.4,M,44.9,M,,*55
$GPGSA,A,3,13,17,14,15,19,23,05,24,,,,,1.91,0.99,1.64*07
$GPGSV,3,1,09,05,21,203,34,13,71,116,35,14,36,048,32,15,75,285,39*78
$GPGSV,3,2,09,17,31,091,31,19,26,122,31,23,23,305,27,24,37,288,31*71
$GPGSV,3,3,09,28,,,29*71
$GPGLL,3912.32327,N,00918.17427,E,143517.00,A,A*65
$GPRMC,143518.00,A,3912.32331,N,00918.17427,E,0.044,,051221,,,A*71
$GPVTG,,T,,M,0.044,N,0.082,K,A*29
$GPGGA,143518.00,3912.32331,N,00918.17427,E,1,08,0.99,0.3,M,44.9,M,,*5A
$GPGSA,A,3,13,17,14,15,19,23,05,24,,,,,1.91,0.99,1.64*07
$GPGSV,3,1,09,05,21,203,34,13,71,116,36,14,36,048,33,15,75,285,37*74
$GPGSV,3,2,09,17,31,091,33,19,26,122,32,23,23,305,29,24,37,288,30*7F
$GPGSV,3,3,09,28,,,29*71
$GPGLL,3912.32331,N,00918.17427,E,143518.00,A,A*6D
$GPRMC,143519.00,A,3912.32331,N,00918.17427,E,0.087,,051221,,,A*7F
$GPVTG,,T,,M,0.087,N,0.161,K,A*2A
$GPGGA,143519.00,3912.32331,N,00918.17427,E,1,08,0.99,0.2,M,44.9,M,,*5A
$GPGSA,A,3,13,17,14,15,19,23,05,24,,,,,1.91,0.99,1.64*07
$GPGSV,3,1,09,05,21,203,34,13,71,116,36,14,36,048,33,15,75,285,36*75
$GPGSV,3,2,09,17,31,091,35,19,26,122,32,23,23,305,31,24,37,288,29*78
$GPGSV,3,3,09,28,,,27*7F
$GPGLL,3912.32331,N,00918.17427,E,143519.00,A,A*6C
$GPRMC,143520.00,A,3912.32331,N,00918.17421,E,0.028,,051221,,,A*76
$GPVTG,,T,,M,0.028,N,0.052,K,A*2E
$GPGGA,143520.00,3912.32331,N,00918.17421,E,1,08,0.99,0.3,M,44.9,M,,*57
$GPGSA,A,3,13,17,14,15,19,23,05,24,,,,,1.91,0.99,1.64*07
$GPGSV,3,1,09,05,21,202,36,13,71,116,35,14,36,048,33,15,75,285,37*74
$GPGSV,3,2,09,17,31,091,38,19,26,122,31,23,23,305,33,24,37,288,29*74
$GPGSV,3,3,09,28,,,32*7B
$GPGLL,3912.32331,N,00918.17421,E,143520.00,A,A*60
$GPRMC,143521.00,A,3912.32320,N,00918.17416,E,0.031,,051221,,,A*7B
$GPVTG,,T,,M,0.031,N,0.058,K,A*2C
$GPGGA,143521.00,3912.32320,N,00918.17416,E,1,08,0.99,0.7,M,44.9,M,,*56
$GPGSA,A,3,13,17,14,15,19,23,05,24,,,,,1.91,0.99,1.64*07
$GPGSV,3,1,09,05,21,202,35,13,71,116,35,14,36,048,37,15,75,285,37*73
$GPGSV,3,2,09,17,31,091,39,19,26,122,31,23,23,305,35,24,37,288,35*7E
$GPGSV,3,3,09,28,,,32*7B
$GPGLL,3912.32320,N,00918.17416,E,143521.00,A,A*65
$GPRMC,143522.00,A,3912.32314,N,00918.17427,E,0.021,,051221,,,A*7C
$GPVTG,,T,,M,0.021,N,0.039,K,A*2A
$GPGGA,143522.00,3912.32314,N,00918.17427,E,1,08,0.99,0.7,M,44.9,M,,*50
$GPGSA,A,3,13,17,14,15,19,23,05,24,,,,,1.91,0.99,1.64*07
$GPGSV,3,1,09,05,21,202,35,13,71,116,35,14,36,048,33,15,75,285,38*78
$GPGSV,3,2,09,17,31,091,40,19,26,122,32,23,23,305,38,24,37,288,35*7E
$GPGSV,3,3,09,28,,,34*7D
$GPGLL,3912.32314,N,00918.17427,E,143522.00,A,A*63
$GPRMC,143523.00,A,3912.32308,N,00918.17442,E,0.036,,051221,,,A*75
$GPVTG,,T,,M,0.036,N,0.066,K,A*26
$GPGGA,143523.00,3912.32308,N,00918.17442,E,1,08,0.99,0.6,M,44.9,M,,*5E
